[{"latitude": 48.8645278209514, "number": 31705, "longitude": 2.416170724425901, "zip_code": "31705", "name": "CHAMPEAUX (BAGNOLET)"}, {"latitude": 48.87242006305313, "number": 10042, "longitude": 2.348395236282807, "zip_code": "10042", "name": "POISSONNI\u00c3\u02c6RE - ENGHIEN"}, {"latitude": 48.882148945631904, "number": 8020, "longitude": 2.319860054774211, "zip_code": "08020", "name": "METRO ROME"}, {"latitude": 48.8682170167744, "number": 1022, "longitude": 2.330493511399174, "zip_code": "01022", "name": "RUE DE LA PAIX"}, {"latitude": 48.893268664697416, "number": 35014, "longitude": 2.412715733388685, "zip_code": "35014", "name": "DE GAULLE (PANTIN)"}, {"latitude": 48.870393671603765, "number": 20040, "longitude": 2.384222472712587, "zip_code": "20040", "name": "PARC DE BELLEVILLE"}, {"latitude": 48.884478, "number": 28002, "longitude": 2.24772065, "zip_code": "28002", "name": "SOLJENITSYNE (PUTEAUX)"}, {"latitude": 48.834658862792736, "number": 15111, "longitude": 2.295789480315903, "zip_code": "15111", "name": "SERRES"}, {"latitude": 48.839041145908176, "number": 12124, "longitude": 2.437655339082955, "zip_code": "12124", "name": "PYRAMIDE ARTILLERIE"}, {"latitude": 48.877872278317966, "number": 9021, "longitude": 2.337446804203667, "zip_code": "09021", "name": "SAINT GEORGES"}, {"latitude": 48.85971010443503, "number": 7007, "longitude": 2.325809024625026, "zip_code": "07007", "name": "MUS\u00c3\u2030E D'ORSAY"}, {"latitude": 48.85550135398888, "number": 20011, "longitude": 2.405168520639166, "zip_code": "20011", "name": "PYR\u00c3\u2030N\u00c3\u2030ES-DAGORNO"}, {"latitude": 48.844730256132095, "number": 5005, "longitude": 2.341923944866407, "zip_code": "05005", "name": "SAINT JACQUES GAY LUSSAC"}, {"latitude": 48.910143671003794, "number": 33006, "longitude": 2.385052018244114, "zip_code": "33006", "name": "KARMAN (AUBERVILLIERS)"}, {"latitude": 48.86008832610481, "number": 4020, "longitude": 2.350148335920203, "zip_code": "04020", "name": "BEAUBOURG PLACE MICHELET"}, {"latitude": 48.8666176586814, "number": 11029, "longitude": 2.38301344041578, "zip_code": "11029", "name": "MENILMONTANT OBERKAMPF"}, {"latitude": 48.854268334051035, "number": 7012, "longitude": 2.319454010061415, "zip_code": "07012", "name": "CITE VANEAU"}, {"latitude": 48.886389634924626, "number": 19019, "longitude": 2.393637514433606, "zip_code": "19019", "name": "PETIT HONNEGER"}, {"latitude": 48.83512886504287, "number": 14113, "longitude": 2.34157863455693, "zip_code": "14113", "name": "ARAGO 2"}, {"latitude": 48.851396721123486, "number": 15028, "longitude": 2.291889313228121, "zip_code": "15028", "name": "DUPLEIX"}, {"latitude": 48.8842989293728, "number": 22005, "longitude": 2.26099177209953, "zip_code": "22005", "name": "DE GAULLE 3 (NEUILLY)"}, {"latitude": 48.8691543609174, "number": 20027, "longitude": 2.40932246879487, "zip_code": "20027", "name": "PORTE DE MENILMONTANT"}, {"latitude": 48.882728090545086, "number": 18042, "longitude": 2.336262639016585, "zip_code": "18042", "name": "PIGALLE GERMAIN PILLON"}, {"latitude": 48.850379753879935, "number": 11008, "longitude": 2.38386933547444, "zip_code": "11008", "name": "FAIDHERBE CHALIGNY"}, {"latitude": 48.8755503947562, "number": 19038, "longitude": 2.389038160847546, "zip_code": "19038", "name": "JOURDAIN"}, {"latitude": 48.824695995415006, "number": 13037, "longitude": 2.363106073577468, "zip_code": "13037", "name": "IVRY BAUDICOURT"}, {"latitude": 48.819941965677195, "number": 13040, "longitude": 2.36507858638901, "zip_code": "13040", "name": "PORTE DE CHOISY"}, {"latitude": 48.85286124871689, "number": 16027, "longitude": 2.268483570651513, "zip_code": "16027", "name": "JASMIN"}, {"latitude": 48.84319882807092, "number": 15118, "longitude": 2.322257377279243, "zip_code": "15118", "name": "PLACE BIENVENUE"}, {"latitude": 48.84479928858768, "number": 6006, "longitude": 2.329337755887181, "zip_code": "06006", "name": "NOTRE DAME DES CHAMPS"}, {"latitude": 48.8571433920909, "number": 20015, "longitude": 2.398472, "zip_code": "20015", "name": "BAGNOLET-ORTEAUX"}, {"latitude": 48.882633484310816, "number": 9005, "longitude": 2.344884406212207, "zip_code": "09005", "name": "SQUARE D'ANVERS"}, {"latitude": 48.86970884795243, "number": 8031, "longitude": 2.310714655374236, "zip_code": "08031", "name": "ROND POINT DES CHAMPS ELYSEES"}, {"latitude": 48.846964359503055, "number": 12015, "longitude": 2.399868277428793, "zip_code": "12015", "name": "NATION PICPUS"}, {"latitude": 48.82195530645611, "number": 14120, "longitude": 2.326806869905884, "zip_code": "14120", "name": "JOURDAN BARBOUX"}, {"latitude": 48.87983122511022, "number": 9007, "longitude": 2.345396338986368, "zip_code": "09007", "name": "CONDORCET"}, {"latitude": 48.881149033952994, "number": 9019, "longitude": 2.336681004295117, "zip_code": "09019", "name": "VICTOR MASSE"}, {"latitude": 48.83411714783768, "number": 15040, "longitude": 2.308850015466539, "zip_code": "15040", "name": "MONCLAR"}, {"latitude": 48.82122766331853, "number": 14013, "longitude": 2.342104214557966, "zip_code": "14013", "name": "LIART AMIRAL MOUCHEZ"}, {"latitude": 48.823963252286866, "number": 42201, "longitude": 2.399998420132992, "zip_code": "42201", "name": "NECKER (CHARENTON)"}, {"latitude": 48.865745077094815, "number": 11038, "longitude": 2.365312950780227, "zip_code": "11038", "name": "TEMPLE REPUBLIQUE"}, {"latitude": 48.891877957087424, "number": 18019, "longitude": 2.335447427689794, "zip_code": "18019", "name": "MONTCALM"}, {"latitude": 48.898773792804256, "number": 17008, "longitude": 2.322478477864687, "zip_code": "17008", "name": "PORCHE POUCHET"}, {"latitude": 48.86138, "number": 901, "longitude": 2.32442, "zip_code": "00901", "name": "PORT SOLF\u00c3\u2030RINO (STATION MOBILE)"}, {"latitude": 48.84629491826888, "number": 15064, "longitude": 2.278413912593796, "zip_code": "15064", "name": "JAVEL"}, {"latitude": 48.835138050689515, "number": 12031, "longitude": 2.385478486564838, "zip_code": "12031", "name": "LAME"}, {"latitude": 48.82603516605852, "number": 13021, "longitude": 2.342176808004326, "zip_code": "13021", "name": "BOUSSINGAULT - TOLBIAC"}, {"latitude": 48.90259224163092, "number": 34002, "longitude": 2.330513564840273, "zip_code": "34002", "name": "PERI (SAINT OUEN)"}, {"latitude": 48.865021945810085, "number": 2005, "longitude": 2.345068440144759, "zip_code": "02005", "name": "MONTORGUEIL RUE MONTMARTRE VERSION 2"}, {"latitude": 48.8827499154713, "number": 22012, "longitude": 2.27740638127753, "zip_code": "22012", "name": "MICHELIS (NEUILLY)"}, {"latitude": 48.841916179825965, "number": 5104, "longitude": 2.358912681317667, "zip_code": "05104", "name": "BUFFON"}, {"latitude": 48.857702134021, "number": 31008, "longitude": 2.43736866129498, "zip_code": "31008", "name": "VINCENNES (MONTREUIL)"}, {"latitude": 48.84214433157821, "number": 15062, "longitude": 2.285862655943941, "zip_code": "15062", "name": "BOUCICAUT"}, {"latitude": 48.85579663740384, "number": 4012, "longitude": 2.357907882135172, "zip_code": "04012", "name": "ECOUFFES RIVOLI"}, {"latitude": 48.86558419108518, "number": 3011, "longitude": 2.356278447633629, "zip_code": "03011", "name": "TURBIGO"}, {"latitude": 48.8569749400317, "number": 20017, "longitude": 2.408842457406961, "zip_code": "20017", "name": "RUE SAINT BLAISE"}, {"latitude": 48.89405725132698, "number": 18028, "longitude": 2.332199335980013, "zip_code": "18028", "name": "VAUVENARGUES"}, {"latitude": 48.83976, "number": 12024, "longitude": 2.38241, "zip_code": "12024", "name": "GARE DE BERCY"}, {"latitude": 48.86651607982108, "number": 11113, "longitude": 2.369322530407524, "zip_code": "11113", "name": "REPUBLIQUE FERRY"}, {"latitude": 48.827600424128306, "number": 21015, "longitude": 2.241835191324587, "zip_code": "21015", "name": "NATIONALE (BOULOGNE-BILLANCOURT)"}, {"latitude": 48.8185, "number": 42015, "longitude": 2.37427, "zip_code": "42015", "name": "JEAN FERRAT (IVRY)"}, {"latitude": 48.850310432924466, "number": 5002, "longitude": 2.345015835298588, "zip_code": "05002", "name": "SAINT JACQUES"}, {"latitude": 48.87277815648997, "number": 10040, "longitude": 2.376348394645978, "zip_code": "10040", "name": "BELLEVILLE"}, {"latitude": 48.83484845292942, "number": 13018, "longitude": 2.366826499627087, "zip_code": "13018", "name": "AURIOL CHEVALERET"}, {"latitude": 48.823316172177535, "number": 13026, "longitude": 2.35433694417225, "zip_code": "13026", "name": "PLACE HENOCQUE VERSION 2"}, {"latitude": 48.876468339733144, "number": 19028, "longitude": 2.392284629788502, "zip_code": "19028", "name": "PLACE DES FETES"}, {"latitude": 48.8707649818776, "number": 10008, "longitude": 2.35872446227434, "zip_code": "10008", "name": "CITE RIVERIN"}, {"latitude": 48.853751073467855, "number": 6015, "longitude": 2.339113722899687, "zip_code": "06015", "name": "MAZET SAINT ANDRE DES ARTS"}, {"latitude": 48.841486856300165, "number": 43006, "longitude": 2.430793451133684, "zip_code": "43006", "name": "MINIMES (VINCENNES)"}, {"latitude": 48.83797034201205, "number": 15054, "longitude": 2.287582307043615, "zip_code": "15054", "name": "CHANDON"}, {"latitude": 48.862650300140295, "number": 11043, "longitude": 2.367053490449912, "zip_code": "11043", "name": "CIRQUE D HIVER"}, {"latitude": 48.84273504298964, "number": 5024, "longitude": 2.352472437223356, "zip_code": "05024", "name": "PLACE MONGE"}, {"latitude": 48.84307638694992, "number": 15036, "longitude": 2.29514141310447, "zip_code": "15036", "name": "LAMBERT"}, {"latitude": 48.81444017962381, "number": 42504, "longitude": 2.341070654172592, "zip_code": "42504", "name": "MALON (GENTILLY)"}, {"latitude": 48.85024108719566, "number": 6107, "longitude": 2.327551549210571, "zip_code": "06107", "name": "CHERCHE MIDI"}, {"latitude": 48.88141110121936, "number": 17029, "longitude": 2.29482820074442, "zip_code": "17029", "name": "PLACE AIM\u00c3\u2030E MAILLART"}, {"latitude": 48.828369893809565, "number": 13050, "longitude": 2.384440354604646, "zip_code": "13050", "name": "QUAI PANHARD ET LEVASSOR"}, {"latitude": 48.879505265624786, "number": 9020, "longitude": 2.337190639271711, "zip_code": "09020", "name": "TOUDOUZE CLAUZEL"}, {"latitude": 48.83425924993043, "number": 14029, "longitude": 2.313391647113252, "zip_code": "14029", "name": "GERGOVIE VERCINGETORIX"}, {"latitude": 48.88072668576597, "number": 10029, "longitude": 2.351464333201903, "zip_code": "10029", "name": "PLACE DE ROUBAIX"}, {"latitude": 48.88291108953936, "number": 9004, "longitude": 2.346319371627125, "zip_code": "09004", "name": "ROCHECHOUART GERANDO"}, {"latitude": 48.874112916506824, "number": 10015, "longitude": 2.362498528696257, "zip_code": "10015", "name": "RECOLLETS"}, {"latitude": 48.84892295818577, "number": 6029, "longitude": 2.341040508705961, "zip_code": "06029", "name": "VAUGIRARD PRINCE"}, {"latitude": 48.8455150897939, "number": 12151, "longitude": 2.3726498446286, "zip_code": "12151", "name": "GARE DE LYON"}, {"latitude": 48.842577100515385, "number": 12019, "longitude": 2.397249990597384, "zip_code": "12019", "name": "GARE DE REUILLY"}, {"latitude": 48.820226792619714, "number": 13116, "longitude": 2.372209309645734, "zip_code": "13116", "name": "PLACE DU DOCTEUR YERSIN"}, {"latitude": 48.87927519569598, "number": 19114, "longitude": 2.378637021920256, "zip_code": "19114", "name": "MANIN SECRETAN"}, {"latitude": 48.873760472140056, "number": 8025, "longitude": 2.315876308346374, "zip_code": "08025", "name": "MIROMESNIL"}, {"latitude": 48.83568044417256, "number": 14033, "longitude": 2.328290822051698, "zip_code": "14033", "name": "DAGUERRE GASSENDI"}, {"latitude": 48.87944136963256, "number": 22011, "longitude": 2.278535717122779, "zip_code": "22011", "name": "MONTROSIER (NEUILLY)"}, {"latitude": 48.835545043575955, "number": 12032, "longitude": 2.40745551592605, "zip_code": "12032", "name": "PORTE DOREE"}, {"latitude": 48.8609983661382, "number": 16110, "longitude": 2.27312852713658, "zip_code": "16110", "name": "OCTAVE FEUILLET"}, {"latitude": 48.84766571002937, "number": 16030, "longitude": 2.273556264965371, "zip_code": "16030", "name": "MIRABEAU"}, {"latitude": 48.83217944426036, "number": 15049, "longitude": 2.287122261982559, "zip_code": "15049", "name": "PORTE DE VERSAILLES"}, {"latitude": 48.83373383017729, "number": 15042, "longitude": 2.271396472461431, "zip_code": "15042", "name": "FARMAN"}, {"latitude": 48.88270064422199, "number": 19012, "longitude": 2.37469338894231, "zip_code": "19012", "name": "LALLY TOLLENDAL"}, {"latitude": 48.82824349415854, "number": 21018, "longitude": 2.250657739639016, "zip_code": "21018", "name": "SEINE (BOULOGNE-BILLANCOURT)"}, {"latitude": 48.83922209776229, "number": 15053, "longitude": 2.291540507948998, "zip_code": "15053", "name": "LECOURBE"}, {"latitude": 48.893400392981874, "number": 18027, "longitude": 2.336266523912805, "zip_code": "18027", "name": "DAMREMONT ORDENER"}, {"latitude": 48.850297010217595, "number": 6103, "longitude": 2.330446820277252, "zip_code": "06103", "name": "MEZIERES RENNES"}, {"latitude": 48.816929720561234, "number": 42006, "longitude": 2.381460319184223, "zip_code": "42006", "name": "BROSSOLETTE (IVRY)"}, {"latitude": 48.894151383293696, "number": 17011, "longitude": 2.314678001115381, "zip_code": "17011", "name": "PORTE DE CLICHY FRAGONARD"}, {"latitude": 48.85293041059132, "number": 6020, "longitude": 2.342657392891206, "zip_code": "06020", "name": "SAINT MICHEL DANTON"}, {"latitude": 48.854176040414856, "number": 11017, "longitude": 2.396093495321842, "zip_code": "11017", "name": "ALEXANDRE DUMAS"}, {"latitude": 48.837549292197465, "number": 14111, "longitude": 2.335983030466524, "zip_code": "14111", "name": "DENFERT-ROCHEREAU CASSINI"}, {"latitude": 48.86793796309799, "number": 11032, "longitude": 2.377885515684799, "zip_code": "11032", "name": "METALLOS"}, {"latitude": 48.8993483537726, "number": 21113, "longitude": 2.29662648341284, "zip_code": "21113", "name": "PETIT (CLICHY)"}, {"latitude": 48.86343198963591, "number": 11044, "longitude": 2.37120861796012, "zip_code": "11044", "name": "RICHARD LENOIR VOLTAIRE NORD"}, {"latitude": 48.85804405694242, "number": 3001, "longitude": 2.367832659296124, "zip_code": "03001", "name": "CHEMIN VERT BEAUMARCHAIS"}, {"latitude": 48.85352868594103, "number": 20133, "longitude": 2.409615362775532, "zip_code": "20133", "name": "RASSELINS"}, {"latitude": 48.822632842232245, "number": 13047, "longitude": 2.377738433657617, "zip_code": "13047", "name": "BOUTROUX VITRY"}, {"latitude": 48.905269629379745, "number": 34009, "longitude": 2.322171248688672, "zip_code": "34009", "name": "MAAR (SAINT OUEN)"}, {"latitude": 48.85384822621097, "number": 11001, "longitude": 2.369701488217501, "zip_code": "11001", "name": "BASTILLE RICHARD LENOIR"}, {"latitude": 48.86240121191442, "number": 3007, "longitude": 2.359447031946381, "zip_code": "03007", "name": "ARCHIVES PASTOURELLE"}, {"latitude": 48.87660117136262, "number": 9009, "longitude": 2.345785516803243, "zip_code": "09009", "name": "SQUARE MONTHOLON"}, {"latitude": 48.86314, "number": 905, "longitude": 2.31669, "zip_code": "00905", "name": "CONCORDE/BERGES DE SEINE (STATION MOBILE)"}, {"latitude": 48.841325259808, "number": 15115, "longitude": 2.31829155159271, "zip_code": "15115", "name": "VAUGIRARD"}, {"latitude": 48.84838576471672, "number": 5018, "longitude": 2.350169939020645, "zip_code": "05018", "name": "MUTUALITE"}, {"latitude": 48.89633193166097, "number": 35006, "longitude": 2.409087652725976, "zip_code": "35006", "name": "DELIZY (PANTIN)"}, {"latitude": 48.878113787876, "number": 9036, "longitude": 2.32956021945824, "zip_code": "09036", "name": "ATHENES CLICHY"}, {"latitude": 48.855501357701705, "number": 4107, "longitude": 2.368429069929045, "zip_code": "04107", "name": "BEAUMARCHAIS"}, {"latitude": 48.88310390458221, "number": 17050, "longitude": 2.323834749088381, "zip_code": "17050", "name": "BATIGNOLLES"}, {"latitude": 48.8425479496716, "number": 5013, "longitude": 2.344596649931604, "zip_code": "05013", "name": "ULM ERASME"}, {"latitude": 48.87541242186098, "number": 20110, "longitude": 2.4059603311549, "zip_code": "20110", "name": "PORTE DES LILAS"}, {"latitude": 48.83772792097816, "number": 13001, "longitude": 2.344664043426302, "zip_code": "13001", "name": "PORT ROYAL"}, {"latitude": 48.83772768745433, "number": 13103, "longitude": 2.360460336476805, "zip_code": "13103", "name": "SAINT MARCEL"}, {"latitude": 48.881161983577115, "number": 17018, "longitude": 2.30951238050775, "zip_code": "17018", "name": "MONCEAU"}, {"latitude": 48.873929200033544, "number": 31704, "longitude": 2.427933579778934, "zip_code": "31704", "name": "HORNET (BAGNOLET)"}, {"latitude": 48.857203787697095, "number": 4103, "longitude": 2.353976273618783, "zip_code": "04103", "name": "HOTEL DE VILLE"}, {"latitude": 48.82584693469992, "number": 21013, "longitude": 2.248821391087721, "zip_code": "21013", "name": "GRENIER (BOULOGNE-BILLANCOURT)"}, {"latitude": 48.85050701184191, "number": 11012, "longitude": 2.393075558274471, "zip_code": "11012", "name": "MONTREUIL VOLTAIRE"}, {"latitude": 48.915156182813234, "number": 33012, "longitude": 2.376424009514086, "zip_code": "33012", "name": "LANDY (AUBERVILLIERS)"}, {"latitude": 48.91013709505388, "number": 35001, "longitude": 2.399325633305226, "zip_code": "35001", "name": "JAURES 1 (PANTIN)"}, {"latitude": 48.821049923459526, "number": 21703, "longitude": 2.29130063072414, "zip_code": "21703", "name": "MARTINIE (VANVES)"}, {"latitude": 48.866067150086806, "number": 2101, "longitude": 2.345463652702569, "zip_code": "02101", "name": "BACHAUMONT"}, {"latitude": 48.8794303755264, "number": 17025, "longitude": 2.303467406687128, "zip_code": "17025", "name": "COURCELLES"}, {"latitude": 48.853261668611665, "number": 7004, "longitude": 2.326319806384382, "zip_code": "07004", "name": "RASPAIL VARENNE"}, {"latitude": 48.86629510600211, "number": 20032, "longitude": 2.389350412433471, "zip_code": "20032", "name": "AMANDIERS"}, {"latitude": 48.87916177777549, "number": 9008, "longitude": 2.34369843072095, "zip_code": "09008", "name": "TOUR D'AUVERGNE"}, {"latitude": 48.848257752729346, "number": 43007, "longitude": 2.439892899386235, "zip_code": "43007", "name": "VORGES (VINCENNES)"}, {"latitude": 48.84419240789483, "number": 12006, "longitude": 2.371691677977748, "zip_code": "12006", "name": "GARE DE LYON VAN GOGH"}, {"latitude": 48.815388220397274, "number": 21204, "longitude": 2.320886790760933, "zip_code": "21204", "name": "D'ORVES (MONTROUGE)"}, {"latitude": 48.82476710259696, "number": 14016, "longitude": 2.335999677300567, "zip_code": "14016", "name": "REILLE MONTSOURIS"}, {"latitude": 48.85281419134583, "number": 31002, "longitude": 2.419307088753658, "zip_code": "31002", "name": "REPUBLIQUE (MONTREUIL)"}, {"latitude": 48.83863387153602, "number": 15070, "longitude": 2.278274193061826, "zip_code": "15070", "name": "BLANC"}, {"latitude": 48.883769733273496, "number": 17047, "longitude": 2.29858466343129, "zip_code": "17047", "name": "COURCELLES - DEMOURES"}, {"latitude": 48.890747210171405, "number": 18018, "longitude": 2.330820396477741, "zip_code": "18018", "name": "CARPEAUX"}, {"latitude": 48.85940271964358, "number": 4014, "longitude": 2.35592748653501, "zip_code": "04014", "name": "ARCHIVES BLANCS MANTEAUX"}, {"latitude": 48.85276674352813, "number": 15105, "longitude": 2.297876431467921, "zip_code": "15105", "name": "SUFFREN F\u00c3\u2030D\u00c3\u2030RATION"}, {"latitude": 48.87182588992616, "number": 10024, "longitude": 2.372203224856393, "zip_code": "10024", "name": "BUISSON SAINT LOUIS"}, {"latitude": 48.905745467654526, "number": 32008, "longitude": 2.364997877155126, "zip_code": "32008", "name": "EMGP NORD (SAINT DENIS)"}, {"latitude": 48.87614039826388, "number": 8054, "longitude": 2.301303138307601, "zip_code": "08054", "name": "HOCHE ALBRECHT"}, {"latitude": 48.86137389094257, "number": 7009, "longitude": 2.320131276903925, "zip_code": "07009", "name": "ASSEMBLEE NATIONALE"}, {"latitude": 48.86397965515107, "number": 1015, "longitude": 2.335599603893845, "zip_code": "01015", "name": "PLACE ANDRE MALRAUX"}, {"latitude": 48.88790134553051, "number": 17002, "longitude": 2.324400445437174, "zip_code": "17002", "name": "LA FOURCHE RUE DE LA CONDAMINE"}, {"latitude": 48.89373427753593, "number": 18030, "longitude": 2.347517966604574, "zip_code": "18030", "name": "SIMPLON"}, {"latitude": 48.88217309420464, "number": 32605, "longitude": 2.42327263606036, "zip_code": "32605", "name": "HORTENSIAS (LES LILAS)"}, {"latitude": 48.82783803264948, "number": 13045, "longitude": 2.370530563855483, "zip_code": "13045", "name": "TOLBIAC ALBERT"}, {"latitude": 48.874810390028195, "number": 8034, "longitude": 2.308314064189137, "zip_code": "08034", "name": "HAUSSMANN COURCELLES"}, {"latitude": 48.869969733968915, "number": 2012, "longitude": 2.3360394555421, "zip_code": "02012", "name": "QUATRE SEPTEMBRE"}, {"latitude": 48.8401089566606, "number": 5029, "longitude": 2.337296889737942, "zip_code": "05029", "name": "PORT ROYAL"}, {"latitude": 48.853246898211985, "number": 20008, "longitude": 2.405871044529538, "zip_code": "20008", "name": "MARAICHERS"}, {"latitude": 48.87815529789739, "number": 17039, "longitude": 2.288518047864942, "zip_code": "17039", "name": "PLACE SAINT FERDINAND"}, {"latitude": 48.841249336041045, "number": 15069, "longitude": 2.288386600849503, "zip_code": "15069", "name": "BOUCICAUT FAURE"}, {"latitude": 48.83712603861059, "number": 5027, "longitude": 2.351433329767636, "zip_code": "05027", "name": "GOBELINS"}, {"latitude": 48.84463462629767, "number": 12017, "longitude": 2.405099826323643, "zip_code": "12017", "name": "ST MANDE NETTER"}, {"latitude": 48.902691617981425, "number": 35003, "longitude": 2.393255829334146, "zip_code": "35003", "name": "VAILLANT (PANTIN)"}, {"latitude": 48.85386896766491, "number": 20116, "longitude": 2.402426162238911, "zip_code": "20116", "name": "HAIES REUNION"}, {"latitude": 48.89284571116732, "number": 18011, "longitude": 2.363429016279767, "zip_code": "18011", "name": "HERBERT"}, {"latitude": 48.83548071896613, "number": 13005, "longitude": 2.348572461702221, "zip_code": "13005", "name": "ARAGO CORDELIERE - VERSION 2"}, {"latitude": 48.87285913900304, "number": 10032, "longitude": 2.370071706985146, "zip_code": "10032", "name": "DODU"}, {"latitude": 48.84041618840877, "number": 15037, "longitude": 2.295464906515111, "zip_code": "15037", "name": "GROULT"}, {"latitude": 48.90066034942664, "number": 21106, "longitude": 2.308569535028556, "zip_code": "21106", "name": "MORICE 2 (CLICHY)"}, {"latitude": 48.87818887641853, "number": 8055, "longitude": 2.299296003861458, "zip_code": "08055", "name": "TERNES COURCELLES"}, {"latitude": 48.85525336084426, "number": 4002, "longitude": 2.347356447642631, "zip_code": "04002", "name": "MARCHE AUX FLEURS"}, {"latitude": 48.84804578628324, "number": 15030, "longitude": 2.284380633700994, "zip_code": "15030", "name": "LINOIS"}, {"latitude": 48.85631717803066, "number": 11020, "longitude": 2.383072452374457, "zip_code": "11020", "name": "CHARONNE"}, {"latitude": 48.84071436444365, "number": 15059, "longitude": 2.278018571567725, "zip_code": "15059", "name": "CITROEN"}, {"latitude": 48.87040913507474, "number": 8549, "longitude": 2.301123191744092, "zip_code": "08549", "name": "PLACE DUNANT"}, {"latitude": 48.867565806130166, "number": 21501, "longitude": 2.225998484960623, "zip_code": "21501", "name": "SELLIER (SURESNES)"}, {"latitude": 48.827525292006904, "number": 14011, "longitude": 2.331729378994153, "zip_code": "14011", "name": "ALESIA SARRETTE"}, {"latitude": 48.8696161948985, "number": 8013, "longitude": 2.306620834902348, "zip_code": "08013", "name": "MARIGNAN"}, {"latitude": 48.84633805388875, "number": 43001, "longitude": 2.420247340474637, "zip_code": "43001", "name": "PARIS 1 (VINCENNES)"}, {"latitude": 48.815050006197445, "number": 44101, "longitude": 2.459239414806482, "zip_code": "44101", "name": "PLACE MONGOLFIER (SAINT MAURICE)"}, {"latitude": 48.86356704711952, "number": 1007, "longitude": 2.347702021141098, "zip_code": "01007", "name": "ETIENNE MARCEL"}, {"latitude": 48.86951797934417, "number": 8105, "longitude": 2.302426218841562, "zip_code": "08105", "name": "FRANCOIS 1ER LINCOLN"}, {"latitude": 48.837555260014625, "number": 16042, "longitude": 2.257972572706903, "zip_code": "16042", "name": "PORTE DE SAINT CLOUD"}, {"latitude": 48.89045112096476, "number": 18022, "longitude": 2.349057392968696, "zip_code": "18022", "name": "BARBES MARCADET"}, {"latitude": 48.90249245151852, "number": 21101, "longitude": 2.297840007374352, "zip_code": "21101", "name": "VALITON (CLICHY)"}, {"latitude": 48.830723214583635, "number": 14125, "longitude": 2.336146557204349, "zip_code": "14125", "name": "DAREAU"}, {"latitude": 48.823923168544646, "number": 14115, "longitude": 2.316573329316086, "zip_code": "14115", "name": "CIT\u00c3\u2030 UNIVERSITAIRE"}, {"latitude": 48.88896161855884, "number": 17004, "longitude": 2.322528975094376, "zip_code": "17004", "name": "LEGENDRE AVENUE DE CLICHY"}, {"latitude": 48.89591411750011, "number": 17007, "longitude": 2.322727367054828, "zip_code": "17007", "name": "NAVIER"}, {"latitude": 48.891834448210986, "number": 17116, "longitude": 2.300144659954865, "zip_code": "17116", "name": "REIMS"}, {"latitude": 48.874179024030234, "number": 9104, "longitude": 2.327778690118609, "zip_code": "9104 ", "name": "AUMARTIN PROVENCE"}, {"latitude": 48.875353174464706, "number": 8008, "longitude": 2.322884365751902, "zip_code": "08008", "name": "ROME SAINT LAZARE"}, {"latitude": 48.856954148055344, "number": 3013, "longitude": 2.362897420229539, "zip_code": "03013", "name": "RUE DE SEVIGNE"}, {"latitude": 48.82860289084512, "number": 13023, "longitude": 2.353034582951421, "zip_code": "13023", "name": "BOBILLOT VERLAINE"}, {"latitude": 48.84779066448261, "number": 43008, "longitude": 2.444690887827985, "zip_code": "43008", "name": "FONTENAY (VINCENNES)"}, {"latitude": 48.85712940035504, "number": 20016, "longitude": 2.404425625176959, "zip_code": "20016", "name": "PYRENEES VITRUVE"}, {"latitude": 48.88416326647457, "number": 18005, "longitude": 2.341879802310627, "zip_code": "18005", "name": "TARDIEU"}, {"latitude": 48.825325870060475, "number": 14106, "longitude": 2.310670653467625, "zip_code": "14106", "name": "STADE DIDOT"}, {"latitude": 48.873338225236466, "number": 20120, "longitude": 2.413239879550039, "zip_code": "20120", "name": "NOISY LE SEC"}, {"latitude": 48.8335736182304, "number": 15107, "longitude": 2.28548042091786, "zip_code": "15107", "name": " PALAIS DES SPORTS"}, {"latitude": 48.843542735006295, "number": 15013, "longitude": 2.306558615574665, "zip_code": "15013", "name": "LECOURBE VOLONTAIRE"}, {"latitude": 48.883620233843736, "number": 33104, "longitude": 2.403240318366616, "zip_code": "33104", "name": "JOINEAU (PRE SAINT GERVAIS)"}, {"latitude": 48.852725972189546, "number": 4009, "longitude": 2.360878343431665, "zip_code": "04009", "name": "VILLAGE SAINT PAUL"}, {"latitude": 48.84795020779427, "number": 16034, "longitude": 2.260659826137633, "zip_code": "16034", "name": "PORTE D'AUTEUIL"}, {"latitude": 48.87685932729332, "number": 9029, "longitude": 2.332762380011633, "zip_code": "09029", "name": "TRINITE"}, {"latitude": 48.827564379878744, "number": 13022, "longitude": 2.34906350669476, "zip_code": "13022", "name": "BUTTE AUX CAILLES"}, {"latitude": 48.85862166935013, "number": 20018, "longitude": 2.409942553877677, "zip_code": "20018", "name": "HARPIGNIES"}, {"latitude": 48.87572, "number": 8002, "longitude": 2.32668, "zip_code": "08002", "name": "GARE SAINT LAZARE - COUR DU HAVRE"}, {"latitude": 48.868165940558264, "number": 8047, "longitude": 2.301274609316824, "zip_code": "08047", "name": "GEORGE V"}, {"latitude": 48.907885757266726, "number": 33009, "longitude": 2.378838474064149, "zip_code": "33009", "name": "FELIX (AUBERVILLIERS)"}, {"latitude": 48.8646494198968, "number": 11042, "longitude": 2.369261438255258, "zip_code": "11042", "name": "OBERKAMPF"}, {"latitude": 48.82509932921558, "number": 21707, "longitude": 2.292500331456548, "zip_code": "21707", "name": "PASTEUR (VANVES)"}, {"latitude": 48.83317977055646, "number": 15047, "longitude": 2.299282641599619, "zip_code": "15047", "name": "DANTZIG"}, {"latitude": 48.824952872870355, "number": 13121, "longitude": 2.388580678853776, "zip_code": "13121", "name": "IVRY BRUNESEAU"}, {"latitude": 48.84776985682885, "number": 7001, "longitude": 2.316183886729462, "zip_code": "07001", "name": "DUROC"}, {"latitude": 48.836058393856256, "number": 15039, "longitude": 2.301865968384287, "zip_code": "15039", "name": "CHARLES VALLIN"}, {"latitude": 48.87494475810723, "number": 8057, "longitude": 2.29743857720451, "zip_code": "08057", "name": "HOCHE"}, {"latitude": 48.85761567856468, "number": 6001, "longitude": 2.335831353037739, "zip_code": "06001", "name": "INSTITUT"}, {"latitude": 48.866331347902545, "number": 11109, "longitude": 2.371097448471508, "zip_code": "11109", "name": "REPUBLIQUE PIERRE LEVEE"}, {"latitude": 48.83088717455243, "number": 14027, "longitude": 2.318882101207347, "zip_code": "14027", "name": "ALESIA GERGOVIE"}, {"latitude": 48.871361039775586, "number": 16104, "longitude": 2.288866396041159, "zip_code": "16104", "name": "PAUL VAL\u00c3\u2030RY"}, {"latitude": 48.854963800335234, "number": 11111, "longitude": 2.387217085372007, "zip_code": "11111", "name": "CHARONNE FROT"}, {"latitude": 48.88949630486821, "number": 18111, "longitude": 2.333393658804396, "zip_code": "18111", "name": "FELIZ ZIEM"}, {"latitude": 48.82234096593411, "number": 14108, "longitude": 2.327861653302471, "zip_code": "14108", "name": "JOURDAN LE BRIX ET MESNIN"}, {"latitude": 48.87545720024482, "number": 8026, "longitude": 2.315465494584916, "zip_code": "08026", "name": "MESSINE"}, {"latitude": 48.879223370628495, "number": 9002, "longitude": 2.349147493536092, "zip_code": "09002", "name": "MAUBEUGE CONDORCET"}, {"latitude": 48.85560316202584, "number": 11019, "longitude": 2.390546390619984, "zip_code": "11019", "name": "CHARONNE PHILIPPE AUGUSTE"}, {"latitude": 48.87712417766737, "number": 19118, "longitude": 2.374276509236151, "zip_code": "19118", "name": "BOLIVAR BURNOUF"}, {"latitude": 48.84629503172156, "number": 5022, "longitude": 2.352222921607491, "zip_code": "05022", "name": "CARDINAL LEMOINE"}, {"latitude": 48.87208360886937, "number": 10009, "longitude": 2.35766368561921, "zip_code": "10009", "name": "HITTORFF"}, {"latitude": 48.839988788911874, "number": 12038, "longitude": 2.400525668552064, "zip_code": "12038", "name": "BEL AIR"}, {"latitude": 48.834390797006805, "number": 14036, "longitude": 2.329303946545288, "zip_code": "14036", "name": "BOULARD DAGUERRE"}, {"latitude": 48.89032998912038, "number": 17005, "longitude": 2.319730559929781, "zip_code": "17005", "name": "BROCHANT"}, {"latitude": 48.863025315388256, "number": 16019, "longitude": 2.268806550199479, "zip_code": "16019", "name": "HENRI MARTIN"}, {"latitude": 48.892656891991216, "number": 18104, "longitude": 2.359435454901881, "zip_code": "18104", "name": "CHAPELLE"}, {"latitude": 48.82987537265954, "number": 13106, "longitude": 2.35424653463425, "zip_code": "13106", "name": "BOBILLOT MERY"}, {"latitude": 48.84064929857331, "number": 21007, "longitude": 2.227978774754288, "zip_code": "21007", "name": "RHIN DANUBE (BOULOGNE BILLANCOURT)"}, {"latitude": 48.87346279870817, "number": 10111, "longitude": 2.364035059250436, "zip_code": "10111", "name": "BOURSE DU TRAVAIL"}, {"latitude": 48.881447321103366, "number": 19022, "longitude": 2.3734047671616, "zip_code": "19022", "name": "BOLIVAR"}, {"latitude": 48.89271966633131, "number": 35008, "longitude": 2.412529571472175, "zip_code": "35008", "name": "LOLIVE 2 (PANTIN)"}, {"latitude": 48.886233417429835, "number": 19109, "longitude": 2.368856390499634, "zip_code": "19109", "name": "PLACE DU MAROC"}, {"latitude": 48.868851708234864, "number": 8048, "longitude": 2.298514048803577, "zip_code": "08048", "name": "MARCEAU"}, {"latitude": 48.875329723153264, "number": 9014, "longitude": 2.340772662331439, "zip_code": "09014", "name": "FAUBOURG MONTMARTRE"}, {"latitude": 48.87789001497427, "number": 9108, "longitude": 2.344785602987212, "zip_code": "09108", "name": "ROCHECHOUART MAUBEUGE"}, {"latitude": 48.82998371071962, "number": 13009, "longitude": 2.350403587821832, "zip_code": "13009", "name": "BLANQUI CORVISART"}, {"latitude": 48.89067812943125, "number": 19006, "longitude": 2.376142468863619, "zip_code": "19006", "name": "MATHIS"}, {"latitude": 48.89263392143244, "number": 17009, "longitude": 2.317313258110739, "zip_code": "17009", "name": "BODIN AVENUE DE CLICHY"}, {"latitude": 48.84394917584249, "number": 12106, "longitude": 2.37908134343237, "zip_code": "12106", "name": "BARTHES TROYES"}, {"latitude": 48.8887900267753, "number": 19125, "longitude": 2.378500156138491, "zip_code": "19125", "name": "LEDIT DE NANTES"}, {"latitude": 48.8095823380351, "number": 42703, "longitude": 2.36268350990116, "zip_code": "42703", "name": "FONTAINEBLEAU (KREMLIN BICETRE)"}, {"latitude": 48.87320440102894, "number": 8016, "longitude": 2.323658830743138, "zip_code": "08016", "name": "SQUARE LOUIS XVI"}, {"latitude": 48.851454182127426, "number": 15025, "longitude": 2.296710300930856, "zip_code": "15025", "name": "AMETTE"}, {"latitude": 48.84367484543761, "number": 5031, "longitude": 2.354615982683207, "zip_code": "05031", "name": "LACEPEDE"}, {"latitude": 48.84373446877937, "number": 6008, "longitude": 2.333428381875887, "zip_code": "06008", "name": "ASSAS LUXEMBOURG"}, {"latitude": 48.866810653323, "number": 1116, "longitude": 2.334388448251871, "zip_code": "01116", "name": "OP\u00c3\u2030RA PYRAMIDES"}, {"latitude": 48.84479039026177, "number": 15033, "longitude": 2.290541560154527, "zip_code": "15033", "name": "VIOLET"}, {"latitude": 48.88573329985865, "number": 19035, "longitude": 2.397846415383189, "zip_code": "19035", "name": "PORTE CHAUMONT"}, {"latitude": 48.894104140316266, "number": 19001, "longitude": 2.372946088467279, "zip_code": "19001", "name": "OURCQ CRIMEE"}, {"latitude": 48.845779219164555, "number": 41603, "longitude": 2.42377059524055, "zip_code": "41603", "name": "PASTEUR (SAINT MANDE)"}, {"latitude": 48.88219420395092, "number": 18041, "longitude": 2.340651849622331, "zip_code": "18041", "name": "MARTYRS 2"}, {"latitude": 48.87013645868239, "number": 20119, "longitude": 2.396690612876254, "zip_code": "20119", "name": "SQUARE DE MENILMONTANT"}, {"latitude": 48.8473310531154, "number": 20047, "longitude": 2.4103900081973, "zip_code": "20047", "name": "COURS DE VINCENNES BD DAVOUT"}, {"latitude": 48.853844054333514, "number": 15026, "longitude": 2.289705348222022, "zip_code": "15026", "name": "BIR HAKEIM"}, {"latitude": 48.87078277953678, "number": 2022, "longitude": 2.345905811394424, "zip_code": "02022", "name": "BONNE NOUVELLE SAINT FIACRE"}, {"latitude": 48.850285280635795, "number": 20006, "longitude": 2.406296107816583, "zip_code": "20006", "name": "PYR\u00c3\u2030N\u00c3\u2030ES - PLAINE"}, {"latitude": 48.838713363162405, "number": 16044, "longitude": 2.252191060537607, "zip_code": "16044", "name": "STADE FRANCAIS"}, {"latitude": 48.87553842110213, "number": 17033, "longitude": 2.293732100169925, "zip_code": "17033", "name": "CARNOT"}, {"latitude": 48.86941289116132, "number": 20035, "longitude": 2.395039981220676, "zip_code": "20035", "name": "PYRENEES"}, {"latitude": 48.88457006316311, "number": 18040, "longitude": 2.360215572664323, "zip_code": "18040", "name": "CHAPELLE MARX DORMOY"}, {"latitude": 48.877356057652264, "number": 10021, "longitude": 2.354511445637388, "zip_code": "10021", "name": "MARCHE ST QUENTIN"}, {"latitude": 48.872939767837096, "number": 10006, "longitude": 2.35403448428308, "zip_code": "10006", "name": "PETITES ECURIES"}, {"latitude": 48.892895283967825, "number": 18026, "longitude": 2.340119632436559, "zip_code": "18026", "name": "RUISSEAU ORDENER"}, {"latitude": 48.860116109626574, "number": 16016, "longitude": 2.280840481911055, "zip_code": "16016", "name": "PAUL DOUMER / LA TOUR"}, {"latitude": 48.89654905978759, "number": 19009, "longitude": 2.384649644021933, "zip_code": "19009", "name": "CITE DES SCIENCES"}, {"latitude": 48.875070404063074, "number": 19101, "longitude": 2.382591714979966, "zip_code": "19101", "name": "SIMON BOLIVAR"}, {"latitude": 48.89792240854517, "number": 17044, "longitude": 2.32851451022192, "zip_code": "17044", "name": "PORTE DE SAINT OUEN"}, {"latitude": 48.847653880984645, "number": 12107, "longitude": 2.390238633141864, "zip_code": "12107", "name": "DIDEROT BOURDAN"}, {"latitude": 48.85167822904787, "number": 7014, "longitude": 2.314633840627834, "zip_code": "07014", "name": "SAINT FRANCOIS XAVIER"}, {"latitude": 48.84115621648301, "number": 14001, "longitude": 2.324448789519074, "zip_code": "14001", "name": "EDGAR QUINET"}, {"latitude": 48.861581157730946, "number": 3009, "longitude": 2.35660934144383, "zip_code": "03009", "name": "TEMPLE 113"}, {"latitude": 48.86707, "number": 3004, "longitude": 2.36351, "zip_code": "03004", "name": "REPUBLIQUE 23"}, {"latitude": 48.88365921093733, "number": 19105, "longitude": 2.395719508193907, "zip_code": "19105", "name": "PORTE BRUNET"}, {"latitude": 48.88727464264267, "number": 18001, "longitude": 2.332648363845394, "zip_code": "18001", "name": "DAMREMONT CAULAINCOURT"}, {"latitude": 48.863411107404715, "number": 20030, "longitude": 2.387133957573714, "zip_code": "20030", "name": "PERE LACHAISE"}, {"latitude": 48.867623078056845, "number": 2020, "longitude": 2.333268593101536, "zip_code": "02020", "name": "OPERA CASANOVA"}, {"latitude": 48.833139, "number": 14104, "longitude": 2.317377, "zip_code": "14104", "name": "LOSSERAND BOYER-BARRET"}, {"latitude": 48.852255290042486, "number": 11004, "longitude": 2.374027235613735, "zip_code": "11004", "name": "CHARONNE SAINT ANTOINE"}, {"latitude": 48.857566889784465, "number": 16022, "longitude": 2.280027395306772, "zip_code": "16022", "name": "RUE JEAN BOLOGNE"}, {"latitude": 48.90162, "number": 19106, "longitude": 2.37267, "zip_code": "19106", "name": "GARE EMGP"}, {"latitude": 48.831582643774894, "number": 13010, "longitude": 2.356708420760657, "zip_code": "13010", "name": "PLACE D ITALIE AURIOL"}, {"latitude": 48.88591312825616, "number": 17107, "longitude": 2.293234151072418, "zip_code": "17107", "name": "BERTHIER STUART MERRIL"}, {"latitude": 48.831121775069235, "number": 13101, "longitude": 2.348108654777346, "zip_code": "13101", "name": "CROULEBARBE RECULETTES"}, {"latitude": 48.81315667771776, "number": 42503, "longitude": 2.332054794950423, "zip_code": "42503", "name": "LENINE (GENTILLY)"}, {"latitude": 48.84057730290756, "number": 13151, "longitude": 2.366124461859616, "zip_code": "13151", "name": "GARE D'AUSTERLITZ"}, {"latitude": 48.865346269362675, "number": 8029, "longitude": 2.310193787964762, "zip_code": "08029", "name": "PLACE DU CANADA"}, {"latitude": 48.844425919545365, "number": 15034, "longitude": 2.29404143328216, "zip_code": "15034", "name": "COMMERCE"}, {"latitude": 48.86213223497159, "number": 3003, "longitude": 2.364951386893752, "zip_code": "03003", "name": "TURENNE BRETAGNE"}, {"latitude": 48.825712903519616, "number": 13046, "longitude": 2.375044300094851, "zip_code": "13046", "name": "OUDINE PATAY"}, {"latitude": 48.86500081847653, "number": 20023, "longitude": 2.403980836377493, "zip_code": "20023", "name": "PELLEPORT BELGRAND"}, {"latitude": 48.86299816676784, "number": 1012, "longitude": 2.341555077827231, "zip_code": "01012", "name": "BOURSE DU COMMERCE"}, {"latitude": 48.818574415839485, "number": 13111, "longitude": 2.353260183740912, "zip_code": "13111", "name": "CIMETIERE DE GENTILLY"}, {"latitude": 48.81420628475591, "number": 42008, "longitude": 2.384207013557983, "zip_code": "42008", "name": "CASANOVA (IVRY)"}, {"latitude": 48.833654852830335, "number": 12041, "longitude": 2.413463576486826, "zip_code": "12041", "name": "BOIS DE VINCENNES"}, {"latitude": 48.900889626876015, "number": 34001, "longitude": 2.324819807804481, "zip_code": "34001", "name": "FRUCTIDOR (SAINT OUEN)"}, {"latitude": 48.903676702256305, "number": 21104, "longitude": 2.319176657580128, "zip_code": "21104", "name": "SANZILLON (CLICHY)"}, {"latitude": 48.852193095437535, "number": 11009, "longitude": 2.3890216505832, "zip_code": "11009", "name": "RUE DES BOULETS"}, {"latitude": 48.8830298392804, "number": 19031, "longitude": 2.38634884002286, "zip_code": "19031", "name": "MANIN CRIMEE"}, {"latitude": 48.891962328964816, "number": 23010, "longitude": 2.284204990113615, "zip_code": "23010", "name": "VOLTAIRE (LEVALLOIS)"}, {"latitude": 48.821159320800966, "number": 13031, "longitude": 2.358701217878322, "zip_code": "13031", "name": "ITALIE MAISON BLANCHE"}, {"latitude": 48.88103214901626, "number": 9017, "longitude": 2.340774412117837, "zip_code": "09017", "name": "TRUDAINE MARTYRS"}, {"latitude": 48.83772145898209, "number": 12026, "longitude": 2.382217337050408, "zip_code": "12026", "name": "PARC DE BERCY"}, {"latitude": 48.847296310645035, "number": 12012, "longitude": 2.385707672217665, "zip_code": "12012", "name": "REUILLY DIDEROT"}, {"latitude": 48.83899382454321, "number": 5026, "longitude": 2.34993205295774, "zip_code": "05026", "name": "MOUFFETARD SAINT MEDARD"}, {"latitude": 48.861205051934334, "number": 11045, "longitude": 2.367352328799597, "zip_code": "11045", "name": "SAINT SEBASTIEN FROISSARD"}, {"latitude": 48.8794000532367, "number": 32602, "longitude": 2.41616066183218, "zip_code": "32602", "name": "POULMARCH (LES LILAS)"}, {"latitude": 48.88794016394694, "number": 18046, "longitude": 2.326124420314341, "zip_code": "18046", "name": "FOURCHE"}, {"latitude": 48.8716626619994, "number": 10014, "longitude": 2.363933311380362, "zip_code": "10014", "name": "BEAUREPAIRE"}, {"latitude": 48.89849005307383, "number": 19115, "longitude": 2.386120008210507, "zip_code": "19115", "name": "PORTE DE LA VILLETTE"}, {"latitude": 48.832934193699835, "number": 12113, "longitude": 2.402636749399156, "zip_code": "12113", "name": "CARDINAL LAVIGERIE"}, {"latitude": 48.87215737993568, "number": 20042, "longitude": 2.391739173776302, "zip_code": "20042", "name": "PYRENEES ERMITAGE"}, {"latitude": 48.860897797941035, "number": 7023, "longitude": 2.29559959844703, "zip_code": "07023", "name": "BOURDONNAIS TOUR EIFFEL"}, {"latitude": 48.8875730709534, "number": 18113, "longitude": 2.33432733641793, "zip_code": "18113", "name": "LEPIC"}, {"latitude": 48.8806060535742, "number": 19027, "longitude": 2.3978962906105, "zip_code": "19027", "name": "SERRURIER"}, {"latitude": 48.886526983267544, "number": 33102, "longitude": 2.407468689386476, "zip_code": "33102", "name": "JAURES 1 (PRE SAINT GERVAIS)"}, {"latitude": 48.88195317244523, "number": 19026, "longitude": 2.392496216649528, "zip_code": "19026", "name": "DANUBE"}, {"latitude": 48.88880002064895, "number": 17028, "longitude": 2.296319931841717, "zip_code": "17028", "name": "PORTE DE COURCELLE"}, {"latitude": 48.88363915389933, "number": 17030, "longitude": 2.295152067446227, "zip_code": "17030", "name": "RENNEQUIN PEREIRE"}, {"latitude": 48.874575036780286, "number": 10017, "longitude": 2.356796765204903, "zip_code": "10017", "name": "GARE DE L'EST SAINT LAURENT"}, {"latitude": 48.84341723238589, "number": 15103, "longitude": 2.275108332056225, "zip_code": "15103", "name": "SQUARE DES C\u00c3\u2030VENNES"}, {"latitude": 48.872787680846464, "number": 8033, "longitude": 2.309722588932229, "zip_code": "08033", "name": "SAINT PHILIPPE DU ROULE"}, {"latitude": 48.8795614522371, "number": 19025, "longitude": 2.38896041078391, "zip_code": "19025", "name": "BOTZARIS"}, {"latitude": 48.857999643314926, "number": 4018, "longitude": 2.350217280976349, "zip_code": "04018", "name": "RIVOLI SEBASTOPOL"}, {"latitude": 48.840610399663696, "number": 16118, "longitude": 2.258373658198948, "zip_code": "16118", "name": "MICHEL ANGE"}, {"latitude": 48.87000061719652, "number": 2107, "longitude": 2.348995518049354, "zip_code": "02107", "name": "THOREL"}, {"latitude": 48.814662495608864, "number": 42706, "longitude": 2.36134550272134, "zip_code": "42706", "name": "SALENGRO (KREMLIN BICETRE)"}, {"latitude": 48.8653941647232, "number": 20025, "longitude": 2.397814475307571, "zip_code": "20025", "name": "GAMBETTA GATINES"}, {"latitude": 48.88047087219649, "number": 28003, "longitude": 2.237362446304566, "zip_code": "28003", "name": "JAURES (PUTEAUX)"}, {"latitude": 48.83055599940998, "number": 14009, "longitude": 2.33378329803361, "zip_code": "14009", "name": "COTY TOMBE D'ISSOIRE"}, {"latitude": 48.86946960532872, "number": 11035, "longitude": 2.371536810663942, "zip_code": "11035", "name": "GONCOURT"}, {"latitude": 48.895470370399146, "number": 18101, "longitude": 2.349865450921441, "zip_code": "18101", "name": "CHAMPIONNET"}, {"latitude": 48.89106, "number": 19123, "longitude": 2.3865, "zip_code": "19123", "name": "QUAI DE METZ"}, {"latitude": 48.845831419610754, "number": 15011, "longitude": 2.301753086991115, "zip_code": "15011", "name": "THEBAUD RUE DE CAMBRONNE"}, {"latitude": 48.83350833245743, "number": 12033, "longitude": 2.386133168700345, "zip_code": "12033", "name": "SAINT EMILION"}, {"latitude": 48.869956681574806, "number": 9034, "longitude": 2.326599657113696, "zip_code": "09034", "name": "GODOT DE MAUROY"}, {"latitude": 48.83788362776244, "number": 14035, "longitude": 2.322551640018162, "zip_code": "14035", "name": "MAINE GAITE"}, {"latitude": 48.83799829528177, "number": 21009, "longitude": 2.240846664821182, "zip_code": "21009", "name": "LECORBUSIER (BOULOGNE-BILLANCOURT)"}, {"latitude": 48.89058621555025, "number": 17023, "longitude": 2.303457408685266, "zip_code": "17023", "name": "AVENUE DE LA PORTE D'ASNI\u00c3\u02c6RES"}, {"latitude": 48.868940642855314, "number": 20039, "longitude": 2.381282601102786, "zip_code": "20039", "name": "COURONNES"}, {"latitude": 48.86585549636314, "number": 16010, "longitude": 2.282859908979733, "zip_code": "16010", "name": "BELLES FEUILLES"}, {"latitude": 48.87288299097443, "number": 8052, "longitude": 2.299972932642669, "zip_code": "08052", "name": "WASHINGTON"}, {"latitude": 48.88185715074461, "number": 17026, "longitude": 2.301138378176729, "zip_code": "17026", "name": "WAGRAM COURCELLES"}, {"latitude": 48.81047749960048, "number": 42702, "longitude": 2.358172896462481, "zip_code": "42702", "name": "LECLERC (KREMLIN BICETRE)"}, {"latitude": 48.82774626607583, "number": 14110, "longitude": 2.320714098089133, "zip_code": "14110", "name": "ABBE CARTON"}, {"latitude": 48.87904931076023, "number": 10152, "longitude": 2.354159095958248, "zip_code": "10152", "name": "GARE DU NORD 2"}, {"latitude": 48.82341630050286, "number": 14107, "longitude": 2.322936857107952, "zip_code": "14107", "name": "PORTE DE MONTROUGE 2"}, {"latitude": 48.84817034136516, "number": 15031, "longitude": 2.289906646457531, "zip_code": "15031", "name": "THEATRE"}, {"latitude": 48.84925926211519, "number": 11010, "longitude": 2.391754614194301, "zip_code": "11010", "name": "ST ANTOINE GONNET"}, {"latitude": 48.85865170952645, "number": 7021, "longitude": 2.303716580234576, "zip_code": "07021", "name": "BOSQUET SAINT DOMINIQUE"}, {"latitude": 48.870306124369975, "number": 16005, "longitude": 2.285074541420228, "zip_code": "16005", "name": "POINCARE VICTOR HUGO"}, {"latitude": 48.8234505470138, "number": 21303, "longitude": 2.249665298288027, "zip_code": "21303", "name": "ILES (ISSY LES MOULINEAUX)"}, {"latitude": 48.83285390827691, "number": 15041, "longitude": 2.306898478208195, "zip_code": "15041", "name": "LABROUSTE"}, {"latitude": 48.828595283857425, "number": 13055, "longitude": 2.380220606266108, "zip_code": "13055", "name": "LAGROUA"}, {"latitude": 48.833174958910085, "number": 21021, "longitude": 2.257005867300889, "zip_code": "21021", "name": "PARADIS (BOULOGNE-BILLANCOURT)"}, {"latitude": 48.87742034308959, "number": 10025, "longitude": 2.366011448983217, "zip_code": "10025", "name": "ECLUSES SAINT MARTIN"}, {"latitude": 48.868910127448686, "number": 20121, "longitude": 2.392020489286297, "zip_code": "20121", "name": "MENILMONTANT BOYER"}, {"latitude": 48.8933800500227, "number": 19011, "longitude": 2.38499975689617, "zip_code": "19011", "name": "ROUVET DAMPIERRE"}, {"latitude": 48.82190796881169, "number": 13038, "longitude": 2.363334710614756, "zip_code": "13038", "name": "CHOISY POINT D'IVRY"}, {"latitude": 48.86648351450895, "number": 1016, "longitude": 2.334433421223788, "zip_code": "01016", "name": "OPERA PYRAMIDES"}, {"latitude": 48.864065046949904, "number": 1102, "longitude": 2.347597912716465, "zip_code": "01102", "name": "FRANCAISE"}, {"latitude": 48.852786944099584, "number": 16025, "longitude": 2.275580584185594, "zip_code": "16025", "name": "FONTAINE RAYNOUARD"}, {"latitude": 48.861720329027264, "number": 16017, "longitude": 2.275346568555312, "zip_code": "16017", "name": "RUE DE SIAM"}, {"latitude": 48.87809927643587, "number": 20029, "longitude": 2.411046298532085, "zip_code": "20029", "name": "PORTE DES LILAS"}, {"latitude": 48.843126205966946, "number": 22101, "longitude": 2.222189235680779, "zip_code": "22101", "name": "GARE ROUTIERE ( SAINT CLOUD)"}, {"latitude": 48.859358523592554, "number": 20131, "longitude": 2.389613136684456, "zip_code": "20131", "name": "REPOS"}, {"latitude": 48.859150287255645, "number": 1003, "longitude": 2.347620087684511, "zip_code": "01003", "name": "RIVOLI SAINT DENIS"}, {"latitude": 48.89282296302349, "number": 17001, "longitude": 2.326803489834799, "zip_code": "17001", "name": "GUY MOCQUET"}, {"latitude": 48.85946238924527, "number": 1010, "longitude": 2.344366128446111, "zip_code": "01010", "name": "PONT NEUF"}, {"latitude": 48.88818698581028, "number": 17016, "longitude": 2.316861143151153, "zip_code": "17016", "name": "BROCHANT"}, {"latitude": 48.85510629540472, "number": 11002, "longitude": 2.373424541930557, "zip_code": "11002", "name": "ROQUETTE THIERE"}, {"latitude": 48.821138751437616, "number": 13120, "longitude": 2.378718606608679, "zip_code": "13120", "name": "VITRY DESAULT"}, {"latitude": 48.87042188343355, "number": 8004, "longitude": 2.323288994791708, "zip_code": "08004", "name": "MALESHERBES PASQUIER"}, {"latitude": 48.87195626635528, "number": 20113, "longitude": 2.384981390278095, "zip_code": "20113", "name": "PARC DE BELLEVILLE"}, {"latitude": 48.88384326568884, "number": 10036, "longitude": 2.367110644031659, "zip_code": "10036", "name": "AQUEDUC"}, {"latitude": 48.8266572063246, "number": 42207, "longitude": 2.405876723011083, "zip_code": "42207", "name": "PARIS 3 (CHARENTON)"}, {"latitude": 48.841923663276546, "number": 12028, "longitude": 2.389728979467376, "zip_code": "12028", "name": "VIVALDI"}, {"latitude": 48.850977229793614, "number": 5008, "longitude": 2.346076825913541, "zip_code": "05008", "name": "ST GERMAIN-DANTE"}, {"latitude": 48.86614574652862, "number": 2003, "longitude": 2.350844595287827, "zip_code": "02003", "name": "ALLEE PIERRE LAZAEFF"}, {"latitude": 48.86343050194121, "number": 1026, "longitude": 2.340169767017624, "zip_code": "01026", "name": "COLONEL DRIANT"}, {"latitude": 48.87409248091576, "number": 20112, "longitude": 2.389435908330615, "zip_code": "20112", "name": "JOURDAIN"}, {"latitude": 48.87669268743692, "number": 16101, "longitude": 2.283457593383419, "zip_code": "16101", "name": "MALAKOFF"}, {"latitude": 48.8877723254283, "number": 17110, "longitude": 2.32036786584418, "zip_code": "17110", "name": "LEGENDRE"}, {"latitude": 48.8296843300915, "number": 15120, "longitude": 2.275342586850291, "zip_code": "15120", "name": "AVIA"}, {"latitude": 48.874794994841274, "number": 10114, "longitude": 2.366669436984963, "zip_code": "10114", "name": "HOPITAL SAINT LOUIS"}, {"latitude": 48.88561741628322, "number": 17031, "longitude": 2.290781411279206, "zip_code": "17031", "name": "PORTE DE CHAMPERET"}, {"latitude": 48.8564374096868, "number": 6021, "longitude": 2.334797622948368, "zip_code": "06021", "name": "BONAPARTE BEAUX ARTS"}, {"latitude": 48.85615074338874, "number": 16031, "longitude": 2.275188414671189, "zip_code": "16031", "name": "BOULAINVILLIERS"}, {"latitude": 48.87279915599243, "number": 16103, "longitude": 2.291508179426733, "zip_code": "16103", "name": "TRAKTIR"}, {"latitude": 48.84612989154848, "number": 6027, "longitude": 2.324240578144087, "zip_code": "06027", "name": "VAUGIRARD DESGOFFE"}, {"latitude": 48.86729323621449, "number": 8030, "longitude": 2.307691605650344, "zip_code": "08030", "name": "MONTAIGNE"}, {"latitude": 48.84996003527753, "number": 4105, "longitude": 2.363239868721318, "zip_code": "04105", "name": "MORLAND"}, {"latitude": 48.852919679957296, "number": 20044, "longitude": 2.410522909779111, "zip_code": "20044", "name": "DAVOUT VOLGA"}, {"latitude": 48.82772523704757, "number": 12120, "longitude": 2.41827234236864, "zip_code": "12120", "name": "CONSERVATION"}, {"latitude": 48.86441140945903, "number": 16018, "longitude": 2.272448647646471, "zip_code": "16018", "name": "FLANDRIN"}, {"latitude": 48.830957464145705, "number": 13042, "longitude": 2.364107053254628, "zip_code": "13042", "name": "NATIONALE BACH"}, {"latitude": 48.83648112918176, "number": 41302, "longitude": 2.479464268709081, "zip_code": "41302", "name": "CHARLES DE GAULLE (NOGENT)"}, {"latitude": 48.89819702263572, "number": 23004, "longitude": 2.293848017974069, "zip_code": "23004", "name": "COUTURIER 2 (LEVALLOIS)"}, {"latitude": 48.840869459702354, "number": 12109, "longitude": 2.387564334932072, "zip_code": "12109", "name": "CHAROLAIS"}, {"latitude": 48.87518586417745, "number": 9030, "longitude": 2.332036313368639, "zip_code": "09030", "name": "VICTOIR CHAUSSEE D ANTIN"}, {"latitude": 48.8896779050281, "number": 18017, "longitude": 2.33817871442611, "zip_code": "18017", "name": "PECQUEUR"}, {"latitude": 48.88470686398326, "number": 18107, "longitude": 2.35358041022707, "zip_code": "18107", "name": "CHARTRES"}, {"latitude": 48.844838019227154, "number": 15008, "longitude": 2.311085506094106, "zip_code": "15008", "name": "SEVRES LECOURBE"}, {"latitude": 48.85129433458901, "number": 7018, "longitude": 2.309747615603337, "zip_code": "07018", "name": "SEGUR ESTREES"}, {"latitude": 48.89713005307456, "number": 19044, "longitude": 2.396079008206681, "zip_code": "19044", "name": "GRANDS MOULINS"}, {"latitude": 48.873267841170026, "number": 10012, "longitude": 2.359323613430623, "zip_code": "10012", "name": "VINAIGRIERS"}, {"latitude": 48.86164049957625, "number": 7022, "longitude": 2.302250344175951, "zip_code": "07022", "name": "PONT DE L'ALMA"}, {"latitude": 48.889485840195675, "number": 35012, "longitude": 2.414307515111288, "zip_code": "35012", "name": "CANDALE (PANTIN)"}, {"latitude": 48.860245194532624, "number": 1009, "longitude": 2.344333545273837, "zip_code": "01009", "name": "PONT NEUF - 14"}, {"latitude": 48.83598100445596, "number": 15051, "longitude": 2.293467119128608, "zip_code": "15051", "name": "ROLLET"}, {"latitude": 48.851285276158144, "number": 20107, "longitude": 2.412733641628248, "zip_code": "20107", "name": "STADE MARYSE HILSZ"}, {"latitude": 48.883318044354574, "number": 8012, "longitude": 2.326207175385489, "zip_code": "08012", "name": "CLICHY"}, {"latitude": 48.86749798940664, "number": 3012, "longitude": 2.353660816249226, "zip_code": "03012", "name": "GAITE LYRIQUE"}, {"latitude": 48.870278078579595, "number": 10105, "longitude": 2.351281636686514, "zip_code": "10105", "name": "BONNE NOUVELLE PROP2"}, {"latitude": 48.872795019872605, "number": 9033, "longitude": 2.328315742616178, "zip_code": "09033", "name": "HAVRE CAUMARTIN"}, {"latitude": 48.820323646126774, "number": 14116, "longitude": 2.32300304092451, "zip_code": "14116", "name": "ROMAIN ROLLAND"}, {"latitude": 48.84264777870052, "number": 12027, "longitude": 2.386164927813738, "zip_code": "12027", "name": "MONTGALLET CHARENTON"}, {"latitude": 48.82902666973469, "number": 13034, "longitude": 2.361069024089417, "zip_code": "13034", "name": "EDISON"}, {"latitude": 48.87939826447722, "number": 9026, "longitude": 2.333709173337285, "zip_code": "09026", "name": "BRUYERE PIGALLE"}, {"latitude": 48.885437730894544, "number": 17013, "longitude": 2.316473835914172, "zip_code": "17013", "name": "LEGENDRE"}, {"latitude": 48.85550131286469, "number": 31004, "longitude": 2.422055733613231, "zip_code": "31004", "name": "PARIS 2 (MONTREUIL)"}, {"latitude": 48.87219025140095, "number": 9106, "longitude": 2.329423494000903, "zip_code": "09106", "name": "AUBER"}, {"latitude": 48.85100487466529, "number": 16028, "longitude": 2.272469482915694, "zip_code": "16028", "name": "MILLET - JEAN DE LA FONTAINE"}, {"latitude": 48.896328348515986, "number": 18034, "longitude": 2.333390423834684, "zip_code": "18034", "name": "LEIBNITZ"}, {"latitude": 48.84375698130157, "number": 5010, "longitude": 2.339306721981416, "zip_code": "05010", "name": "SAINT MICHEL HENRI BARBUSSE"}, {"latitude": 48.84618800146489, "number": 12102, "longitude": 2.37040616152132, "zip_code": "12102", "name": "DIDEROT BERCY"}, {"latitude": 48.84969041137042, "number": 5019, "longitude": 2.352970183602024, "zip_code": "05019", "name": "POISSY"}, {"latitude": 48.84509712653168, "number": 16038, "longitude": 2.265724147895062, "zip_code": "16038", "name": "RUE MOLITOR"}, {"latitude": 48.87334627510507, "number": 9022, "longitude": 2.337980867701675, "zip_code": "09022", "name": "LAFITTE ROSSINI"}, {"latitude": 48.86530798423503, "number": 11030, "longitude": 2.376019912019568, "zip_code": "11030", "name": "SAINT MAUR OBERKAMPF"}, {"latitude": 48.863757931035046, "number": 16130, "longitude": 2.267504683574771, "zip_code": "16130", "name": "BOIS DE BOULOGNE / PORTE DE LA MUETTE 2"}, {"latitude": 48.84696126017499, "number": 43009, "longitude": 2.452237396596088, "zip_code": "43009", "name": "MURS DU PARC (VINCENNES)"}, {"latitude": 48.84040040365445, "number": 15113, "longitude": 2.313117867297474, "zip_code": "15113", "name": "FALGUIERE ARSONVAL"}, {"latitude": 48.857091635218225, "number": 1001, "longitude": 2.341747995157864, "zip_code": "01001", "name": "ILE DE LA CITE PONT NEUF"}, {"latitude": 48.88412710804656, "number": 18044, "longitude": 2.328807098192234, "zip_code": "18044", "name": "CLICHY"}, {"latitude": 48.8936146524531, "number": 23001, "longitude": 2.277618727223195, "zip_code": "23001", "name": "COUTURIER 1 (LEVALLOIS)"}, {"latitude": 48.877532084130166, "number": 17046, "longitude": 2.294512536052928, "zip_code": "17046", "name": "MAC MAHON"}, {"latitude": 48.8887860708258, "number": 19018, "longitude": 2.39268612206715, "zip_code": "19018", "name": "CIT\u00c3\u2030 DE LA MUSIQUE"}, {"latitude": 48.816980981259285, "number": 14126, "longitude": 2.332609687921881, "zip_code": "14126", "name": "VAILLANT COUTURIER"}, {"latitude": 48.84842761367387, "number": 16033, "longitude": 2.265253821160005, "zip_code": "16033", "name": "MICHEL ANGE AUTEUIL"}, {"latitude": 48.8337, "number": 14031, "longitude": 2.3215, "zip_code": "14031", "name": "DIDOT CHATEAU"}, {"latitude": 48.851359912581465, "number": 16029, "longitude": 2.277697269448623, "zip_code": "16029", "name": "MAISON DE RADIO FRANCE"}, {"latitude": 48.8842894403224, "number": 17021, "longitude": 2.305497444260642, "zip_code": "17021", "name": "WAGRAM (17EME ARR.)"}, {"latitude": 48.881472498481, "number": 19116, "longitude": 2.37026248225988, "zip_code": "19116", "name": "JAURES VILLETTE"}, {"latitude": 48.91157045930829, "number": 34010, "longitude": 2.333910127129224, "zip_code": "34010", "name": "DIDEROT 2 (SAINT OUEN)"}, {"latitude": 48.883026659159576, "number": 22006, "longitude": 2.260096983931875, "zip_code": "22006", "name": "PIERRET (NEUILLY)"}, {"latitude": 48.886335082615275, "number": 19014, "longitude": 2.38246120055766, "zip_code": "19014", "name": "LORRAINE"}, {"latitude": 48.839635080561905, "number": 15038, "longitude": 2.300654459291639, "zip_code": "15038", "name": "PLACE ADOLPHE CHERIOUX"}, {"latitude": 48.85160266522164, "number": 20043, "longitude": 2.398403047037931, "zip_code": "20043", "name": "CHARONNE AVRON"}, {"latitude": 48.87068263384462, "number": 20036, "longitude": 2.398959602331646, "zip_code": "20036", "name": "MENILMONTANT - PELLEPORT"}, {"latitude": 48.815529633678416, "number": 21207, "longitude": 2.317029863731327, "zip_code": "21207", "name": "VERDIER (MONTROUGE)"}, {"latitude": 48.852804604940296, "number": 15067, "longitude": 2.293077029857222, "zip_code": "15067", "name": "DESAIX"}, {"latitude": 48.885257971348466, "number": 18114, "longitude": 2.334617735640665, "zip_code": "18114", "name": "LEPIC VERON"}, {"latitude": 48.87775323400056, "number": 9035, "longitude": 2.327339290714228, "zip_code": "09035", "name": "PLACE DE BUDAPEST"}, {"latitude": 48.868660481539266, "number": 2016, "longitude": 2.35018588824494, "zip_code": "02016", "name": "ABOUKIR"}, {"latitude": 48.847184641150214, "number": 5021, "longitude": 2.353398379689353, "zip_code": "05021", "name": "JUSSIEU"}, {"latitude": 48.88469160640549, "number": 18006, "longitude": 2.344139285947184, "zip_code": "18006", "name": "MARCHE ST-PIERRE"}, {"latitude": 48.855965856210226, "number": 4015, "longitude": 2.356381154873061, "zip_code": "04015", "name": "MAIRIE DU 4 EME"}, {"latitude": 48.872747269036246, "number": 20117, "longitude": 2.408203454302088, "zip_code": "20117", "name": "SAINT FARGEAU MORTIER"}, {"latitude": 48.892139409307205, "number": 35009, "longitude": 2.409107737701187, "zip_code": "35009", "name": "LOLIVE 1 (PANTIN)"}, {"latitude": 48.884101293163106, "number": 17012, "longitude": 2.322206025347343, "zip_code": "17012", "name": "MAIRIE DU 17EME"}, {"latitude": 48.88679881177337, "number": 19029, "longitude": 2.374719516795626, "zip_code": "19029", "name": "SEINE FLANDRE"}, {"latitude": 48.870893425955984, "number": 10004, "longitude": 2.353521565011111, "zip_code": "10004", "name": "METZ"}, {"latitude": 48.87077575727228, "number": 2010, "longitude": 2.343163334385358, "zip_code": "02010", "name": "BOULEVARD MONTMARTRE"}, {"latitude": 48.88235325984544, "number": 9027, "longitude": 2.333263372748175, "zip_code": "09027", "name": "FONTAINE DOUAI"}, {"latitude": 48.86442014173202, "number": 11040, "longitude": 2.366136374249966, "zip_code": "11040", "name": "TEMPLE JEAN PIERRE TIMBAUD"}, {"latitude": 48.8456381388333, "number": 21003, "longitude": 2.23701147134366, "zip_code": "21003", "name": "JAURES 1 (BOULOGNE-BILLANCOURT)"}, {"latitude": 48.82690019971573, "number": 13036, "longitude": 2.365177603483576, "zip_code": "13036", "name": "TOLBIAC NATIONALE"}, {"latitude": 48.81414053750237, "number": 42014, "longitude": 2.390909368067142, "zip_code": "42014", "name": "CACHIN (IVRY)"}, {"latitude": 48.876419813641114, "number": 906, "longitude": 2.358630064544601, "zip_code": "00906", "name": "GARE DE L'EST"}, {"latitude": 48.83932502506044, "number": 14117, "longitude": 2.320954125728877, "zip_code": "14117", "name": "MOUCHOTTE"}, {"latitude": 48.88199720999019, "number": 10031, "longitude": 2.363625214552995, "zip_code": "10031", "name": "AQUEDUC"}, {"latitude": 48.82941013459557, "number": 13053, "longitude": 2.375934558013933, "zip_code": "13053", "name": "CHEVALERET TOLBIAC"}, {"latitude": 48.876719895109, "number": 9010, "longitude": 2.344393021853951, "zip_code": "09010", "name": "CADET"}, {"latitude": 48.857940092963034, "number": 1002, "longitude": 2.347010058114489, "zip_code": "01002", "name": "PLACE DU CHATELET"}, {"latitude": 48.84026772485455, "number": 12025, "longitude": 2.379519527723101, "zip_code": "12025", "name": "BERCY"}, {"latitude": 48.86598324102434, "number": 16107, "longitude": 2.275725635731198, "zip_code": "16107", "name": "GODARD"}, {"latitude": 48.82434285685922, "number": 13118, "longitude": 2.376060091685724, "zip_code": "13118", "name": "PATAY REGNAULT"}, {"latitude": 48.85535513998681, "number": 20013, "longitude": 2.399728589689724, "zip_code": "20013", "name": "PLACE DE LA REUNION"}, {"latitude": 48.883498081948446, "number": 17105, "longitude": 2.28201558962579, "zip_code": "17105", "name": "PALADINES"}, {"latitude": 48.88023362761321, "number": 17043, "longitude": 2.285380679473588, "zip_code": "17043", "name": "PLACE GENERAL KOENIG"}, {"latitude": 48.82570981702807, "number": 14037, "longitude": 2.321849987344236, "zip_code": "14037", "name": "JEAN MOULIN"}, {"latitude": 48.86909008833763, "number": 8005, "longitude": 2.324429630496505, "zip_code": "08005", "name": "MADELEINE"}, {"latitude": 48.84623928170344, "number": 5003, "longitude": 2.341324916011569, "zip_code": "05003", "name": "GAY LUSSAC LE GOFF"}, {"latitude": 48.868, "number": 11037, "longitude": 2.36498, "zip_code": "11037", "name": "FAUBOURG DU TEMPLE PLACE DE LA REPUBLIQUE"}, {"latitude": 48.88384931844148, "number": 10034, "longitude": 2.360053088985318, "zip_code": "10034", "name": "CHAPELLE LOUIS BLANC"}, {"latitude": 48.811749821310805, "number": 21211, "longitude": 2.303169887627808, "zip_code": "21211", "name": "MARNE (MONTROUGE)"}, {"latitude": 48.87518496111192, "number": 16002, "longitude": 2.284219432060596, "zip_code": "16002", "name": "PERGOLESE"}, {"latitude": 48.83199636916928, "number": 13008, "longitude": 2.354809472700658, "zip_code": "13008", "name": "ITALIE ROSALIE"}, {"latitude": 48.90550311453459, "number": 21110, "longitude": 2.310820381708937, "zip_code": "21110", "name": "VILLENEUVE (CLICHY)"}, {"latitude": 48.88287775178599, "number": 17041, "longitude": 2.287667370814871, "zip_code": "17041", "name": "PORTE DE VILLIERS"}, {"latitude": 48.87355533448877, "number": 8102, "longitude": 2.303288666125152, "zip_code": "08102", "name": "LAMENAIS WASHINGTON"}, {"latitude": 48.8621350384716, "number": 11027, "longitude": 2.377229858571335, "zip_code": "11027", "name": "SAINT AMBROISE PARMENTIER"}, {"latitude": 48.8365662244334, "number": 15027, "longitude": 2.312707121097412, "zip_code": "15027", "name": "GIDE"}, {"latitude": 48.86346964122224, "number": 20045, "longitude": 2.409670100215905, "zip_code": "20045", "name": "LOUIS GANNE"}, {"latitude": 48.86849994171273, "number": 10001, "longitude": 2.359970049607283, "zip_code": "10001", "name": "JOHANN STRAUSS"}, {"latitude": 48.844806421735925, "number": 15021, "longitude": 2.297572005982148, "zip_code": "15021", "name": "CROIX NIVERT"}, {"latitude": 48.87582185503067, "number": 9113, "longitude": 2.347303230302456, "zip_code": "09113", "name": "BLEUE"}, {"latitude": 48.85045800918843, "number": 5107, "longitude": 2.352454275492188, "zip_code": "05107", "name": "PONTOISE"}, {"latitude": 48.879813218337546, "number": 17040, "longitude": 2.287956452342442, "zip_code": "17040", "name": "TERNES PEREIRE"}, {"latitude": 48.850125232056115, "number": 41203, "longitude": 2.455529172111142, "zip_code": "41203", "name": "STALINGRAD (FONTENAY SOUS BOIS)"}, {"latitude": 48.84757532146731, "number": 15010, "longitude": 2.30286310050181, "zip_code": "15010", "name": "CAMBRONNE"}, {"latitude": 48.87154221364212, "number": 9012, "longitude": 2.345836455597928, "zip_code": "09012", "name": "ROUGEMONT"}, {"latitude": 48.870508937203915, "number": 2015, "longitude": 2.334054461939329, "zip_code": "02015", "name": "OPERA - CAPUCINES"}, {"latitude": 48.914188312399, "number": 34011, "longitude": 2.33208283587176, "zip_code": "34011", "name": "DHALENNE (SAINT OUEN)"}, {"latitude": 48.86302549226599, "number": 31706, "longitude": 2.415622204179507, "zip_code": "31706", "name": "CHATEAU (BAGNOLET)"}, {"latitude": 48.849215862624035, "number": 12002, "longitude": 2.370503423869599, "zip_code": "12002", "name": "LACUEE"}, {"latitude": 48.84717561492764, "number": 15009, "longitude": 2.307052147596786, "zip_code": "15009", "name": "SUFFREN"}, {"latitude": 48.84030274499962, "number": 12036, "longitude": 2.394630398715453, "zip_code": "12036", "name": "REUILLY"}, {"latitude": 48.838431825491696, "number": 14004, "longitude": 2.340794666870659, "zip_code": "14004", "name": "PORT ROYAL COCHIN"}, {"latitude": 48.866843803252216, "number": 8001, "longitude": 2.315779713410026, "zip_code": "08001", "name": "PETIT PALAIS"}, {"latitude": 48.86863640502551, "number": 3101, "longitude": 2.355591592778568, "zip_code": "03101", "name": "PORTE SAINT MARTIN"}, {"latitude": 48.87099998982137, "number": 10010, "longitude": 2.361141436574885, "zip_code": "10010", "name": "JACQUES BONSERGENT"}, {"latitude": 48.828156251574946, "number": 13122, "longitude": 2.358513532903332, "zip_code": "13122", "name": "PARC DE CHOISY"}, {"latitude": 48.89453090447961, "number": 18029, "longitude": 2.341541339092219, "zip_code": "18029", "name": "POTEAU"}, {"latitude": 48.834953979664654, "number": 21005, "longitude": 2.241688247102405, "zip_code": "21005", "name": "MORIZET (BOULOGNE-BILLANCOURT)"}, {"latitude": 48.83476837934194, "number": 15061, "longitude": 2.284142297394666, "zip_code": "15061", "name": "DESNOUETTES"}, {"latitude": 48.82650293311012, "number": 14122, "longitude": 2.309274799827166, "zip_code": "14122", "name": "BRUNE"}, {"latitude": 48.892925653432606, "number": 18025, "longitude": 2.344517921162641, "zip_code": "18025", "name": "MAIRIE DU 18 EME"}, {"latitude": 48.85123038028847, "number": 7003, "longitude": 2.325070038738617, "zip_code": "07003", "name": "BON MARCHE"}, {"latitude": 48.87137987425661, "number": 10113, "longitude": 2.369896383666685, "zip_code": "10113", "name": "PARMENTIER LOUVEL-TESSIER"}, {"latitude": 48.875670112481366, "number": 10161, "longitude": 2.359509937592322, "zip_code": "10161", "name": "GARE DE L'EST"}, {"latitude": 48.83667579640627, "number": 12030, "longitude": 2.391795855555629, "zip_code": "12030", "name": "WATTIGNIES"}, {"latitude": 48.85780291711202, "number": 16043, "longitude": 2.277500546942199, "zip_code": "16043", "name": "PLACE DE PASSY"}, {"latitude": 48.84423193255657, "number": 12123, "longitude": 2.439209537709179, "zip_code": "12123", "name": "CHATEAU DE VINCENNES"}, {"latitude": 48.899268863316706, "number": 18122, "longitude": 2.342963477309899, "zip_code": "18122", "name": "BINET"}, {"latitude": 48.86288, "number": 908, "longitude": 2.30652, "zip_code": "00908", "name": "PORT DU GROS CAILLOU (STATION MOBILE)"}, {"latitude": 48.824407767562604, "number": 12126, "longitude": 2.418455004234756, "zip_code": "12126", "name": "AVENUE DE GRAVELLE"}, {"latitude": 48.833190318752514, "number": 14006, "longitude": 2.336933391248149, "zip_code": "14006", "name": "SAINT JACQUES TOMBE ISSOIRE"}, {"latitude": 48.888185641932566, "number": 17117, "longitude": 2.310120536549759, "zip_code": "17117", "name": "PEREIRE SAUSSURE"}, {"latitude": 48.85525468775053, "number": 6013, "longitude": 2.337539334060287, "zip_code": "06013", "name": "JACQUES CALLOT"}, {"latitude": 48.873486169349846, "number": 8015, "longitude": 2.320281234210629, "zip_code": "08015", "name": "ROQUEPINE"}, {"latitude": 48.84163270861767, "number": 5014, "longitude": 2.348552018116996, "zip_code": "05014", "name": "CALVIN"}, {"latitude": 48.8805744614225, "number": 19119, "longitude": 2.376853000562019, "zip_code": "19119", "name": "BOURET PAILLERON"}, {"latitude": 48.82649432826404, "number": 13048, "longitude": 2.344301715865302, "zip_code": "13048", "name": "TOLBIAC WURTZ"}, {"latitude": 48.851647848142655, "number": 6003, "longitude": 2.33081707438869, "zip_code": "06003", "name": "SAINT SULPICE"}, {"latitude": 48.874923109802, "number": 8113, "longitude": 2.319395144377322, "zip_code": "08113", "name": "PLACE ST AUGUSTIN"}, {"latitude": 48.879775248860305, "number": 19039, "longitude": 2.374834351164813, "zip_code": "19039", "name": "PAILLERON"}, {"latitude": 48.888864896056646, "number": 18012, "longitude": 2.355966721417555, "zip_code": "18012", "name": "DOUDEAUVILLE STEPHENSON"}, {"latitude": 48.82692976736927, "number": 21310, "longitude": 2.272250431956518, "zip_code": "21310", "name": "KLEBER (ISSY LES MOULINEAUX)"}, {"latitude": 48.82245594764965, "number": 13025, "longitude": 2.347382729482953, "zip_code": "13025", "name": "PLACE DE RUNGIS"}, {"latitude": 48.870658012858954, "number": 31702, "longitude": 2.424046437536216, "zip_code": "31702", "name": "CURIE (BAGNOLET)"}, {"latitude": 48.86967912445944, "number": 10002, "longitude": 2.354327697377583, "zip_code": "10002", "name": "STRASBOURG"}, {"latitude": 48.819954101228014, "number": 43401, "longitude": 2.464025504702534, "zip_code": "43401", "name": "GARE RER (JOINVILLE)"}, {"latitude": 48.85704145047844, "number": 11025, "longitude": 2.37289470306807, "zip_code": "11025", "name": "FROMENT BREGUET"}, {"latitude": 48.838936909959585, "number": 15114, "longitude": 2.316168412063174, "zip_code": "15114", "name": "PASTEUR COTENTIN"}, {"latitude": 48.8492766381855, "number": 11013, "longitude": 2.39493447775012, "zip_code": "11013", "name": "NATION VOLAIRE"}, {"latitude": 48.881830717500975, "number": 17037, "longitude": 2.292140665828861, "zip_code": "17037", "name": "BAYERN PEREIRE"}, {"latitude": 48.87563967181739, "number": 9101, "longitude": 2.343523591554751, "zip_code": "09101", "name": "CADET LA FAYETTE"}, {"latitude": 48.85252900039587, "number": 11101, "longitude": 2.380583632323688, "zip_code": "11101", "name": "SQUARE NORDLING"}, {"latitude": 48.830586296160526, "number": 21012, "longitude": 2.23449077993291, "zip_code": "21012", "name": "LECLERC (BOULOGNE-BILLANCOURT)"}, {"latitude": 48.852566752033766, "number": 20132, "longitude": 2.403928068708116, "zip_code": "20132", "name": "REUNION"}, {"latitude": 48.8403981721562, "number": 12042, "longitude": 2.40922942058058, "zip_code": "12042", "name": "MONTEMPOIVRE"}, {"latitude": 48.89521990468008, "number": 18038, "longitude": 2.360097619095422, "zip_code": "18038", "name": "ROND POINT DE LA CHAPELLE"}, {"latitude": 48.87957771852628, "number": 10153, "longitude": 2.354463131150579, "zip_code": "10153", "name": "GARE DU NORD 3"}, {"latitude": 48.87615605427147, "number": 10023, "longitude": 2.360914908320552, "zip_code": "10023", "name": "VERDUN"}, {"latitude": 48.876079329226044, "number": 8017, "longitude": 2.322731562049324, "zip_code": "08017", "name": "ROCHER"}, {"latitude": 48.86024012095245, "number": 20122, "longitude": 2.408758427822183, "zip_code": "20122", "name": "DAVOUT VITRUVE"}, {"latitude": 48.873794318379595, "number": 8103, "longitude": 2.306299550271081, "zip_code": "08103", "name": "D'ARTOIS BERRY"}, {"latitude": 48.90933002188958, "number": 32003, "longitude": 2.358050565736408, "zip_code": "32003", "name": "METALLURGIE (SAINT DENIS)"}, {"latitude": 48.85041836676044, "number": 43004, "longitude": 2.43451378622076, "zip_code": "43004", "name": "MONTREUIL (VINCENNES)"}, {"latitude": 48.88260881643341, "number": 17019, "longitude": 2.309026487339271, "zip_code": "17019", "name": "MALESHERBES"}, {"latitude": 48.884924358880866, "number": 17119, "longitude": 2.310908552941167, "zip_code": "17119", "name": "TOQUEVILLE"}, {"latitude": 48.86885168937216, "number": 2009, "longitude": 2.339731401086941, "zip_code": "02009", "name": "BOURSE"}, {"latitude": 48.88639367943585, "number": 19016, "longitude": 2.386541454435452, "zip_code": "19016", "name": "OURCQ"}, {"latitude": 48.864423648565946, "number": 20115, "longitude": 2.410411115844628, "zip_code": "20115", "name": "PORTE DE BAGNOLET"}, {"latitude": 48.858445054261914, "number": 11021, "longitude": 2.39039812238911, "zip_code": "11021", "name": "PHILIPPE AUGUSTE (20EME ARR.)"}, {"latitude": 48.87745567681383, "number": 8036, "longitude": 2.309694221419506, "zip_code": "08036", "name": "RIO"}, {"latitude": 48.88530162190401, "number": 18002, "longitude": 2.347211037538656, "zip_code": "18002", "name": "CLIGNANCOURT"}, {"latitude": 48.836125842982426, "number": 41301, "longitude": 2.470375451268832, "zip_code": "41301", "name": "CLEMANCEAU (NOGENT)"}, {"latitude": 48.88836894202208, "number": 19017, "longitude": 2.390991659376403, "zip_code": "19017", "name": "PARC DE LA VILLETTE"}, {"latitude": 48.89748845974928, "number": 18032, "longitude": 2.343996499337776, "zip_code": "18032", "name": "PORTE DE CLIGNANCOURT"}, {"latitude": 48.870481938552295, "number": 8039, "longitude": 2.307662540152187, "zip_code": "08039", "name": "COLISEE"}, {"latitude": 48.8415048015128, "number": 14101, "longitude": 2.323277715643321, "zip_code": "14101", "name": "PLACE FERNAND MOURLOT"}, {"latitude": 48.8529448879212, "number": 4003, "longitude": 2.352088649440748, "zip_code": "04003", "name": "PONT SAINT LOUIS"}, {"latitude": 48.89013398748709, "number": 18010, "longitude": 2.360504244841426, "zip_code": "18010", "name": "MARX DORMOY"}, {"latitude": 48.84429286557653, "number": 15060, "longitude": 2.277345897096496, "zip_code": "15060", "name": "MONDRIAN"}, {"latitude": 48.84190715333373, "number": 12105, "longitude": 2.376605625312414, "zip_code": "12105", "name": "BERCY VILLOT"}, {"latitude": 48.845886946386784, "number": 12003, "longitude": 2.366896793773722, "zip_code": "12003", "name": "QUAI DE LA RAPEE"}, {"latitude": 48.835064363954, "number": 14103, "longitude": 2.323731449973991, "zip_code": "14103", "name": "MAINE LIANCOURT"}, {"latitude": 48.82583946069817, "number": 13030, "longitude": 2.357215357508107, "zip_code": "13030", "name": "ITALIE TOLBIAC"}, {"latitude": 48.865194405295554, "number": 8046, "longitude": 2.300249545157282, "zip_code": "08046", "name": "ALMA MARCEAU"}, {"latitude": 48.85838125289731, "number": 16023, "longitude": 2.284129012892127, "zip_code": "16023", "name": "RUE DE PASSY"}, {"latitude": 48.8843481513331, "number": 10035, "longitude": 2.3641633298742, "zip_code": "10035", "name": "AUBERVILLIERS"}, {"latitude": 48.90811038299345, "number": 21111, "longitude": 2.307519710082483, "zip_code": "21111", "name": "LERICHE (CLICHY)"}, {"latitude": 48.842842278074414, "number": 14127, "longitude": 2.324441565139471, "zip_code": "14127", "name": "ODESSA"}, {"latitude": 48.83094844846017, "number": 13016, "longitude": 2.37965351592796, "zip_code": "13016", "name": "PRIMO LEVI"}, {"latitude": 48.83749044650707, "number": 12010, "longitude": 2.401825585802231, "zip_code": "12010", "name": "MICHEL BIZOT"}, {"latitude": 48.85255339271965, "number": 20105, "longitude": 2.415542372109208, "zip_code": "20105", "name": "GAUMONT"}, {"latitude": 48.87649965412676, "number": 19023, "longitude": 2.379407362599104, "zip_code": "19023", "name": "MANIN SIMON BOLIVAR"}, {"latitude": 48.83321982302087, "number": 15125, "longitude": 2.276630334051614, "zip_code": "15125", "name": "AQUABOULEVARD"}, {"latitude": 48.870437805350605, "number": 8049, "longitude": 2.300830261423519, "zip_code": "08049", "name": "DUNANT"}, {"latitude": 48.84660186578123, "number": 5017, "longitude": 2.34901473289268, "zip_code": "05017", "name": "DESCARTES"}, {"latitude": 48.89454171584971, "number": 18037, "longitude": 2.352295466779576, "zip_code": "18037", "name": "AMIRAUX"}, {"latitude": 48.89594736851349, "number": 19033, "longitude": 2.381133802246315, "zip_code": "19033", "name": "CAMBRAI"}, {"latitude": 48.84050866371248, "number": 5034, "longitude": 2.353713552033412, "zip_code": "05034", "name": "CENSIER"}, {"latitude": 48.85394230916141, "number": 6024, "longitude": 2.33015352476927, "zip_code": "06024", "name": "SAINT GERMAIN DES PRES"}, {"latitude": 48.848482816609724, "number": 11014, "longitude": 2.39721188193514, "zip_code": "11014", "name": "NATION TRONE"}, {"latitude": 48.86272646274573, "number": 20021, "longitude": 2.403351311000777, "zip_code": "20021", "name": "PRAIRIE L INDRE"}, {"latitude": 48.86829988920071, "number": 2011, "longitude": 2.338089782278504, "zip_code": "02011", "name": "BIBLIOTHEQUE NATIONALE"}, {"latitude": 48.881141015697715, "number": 32603, "longitude": 2.424974243066201, "zip_code": "32603", "name": "CALMETTE (LES LILAS)"}, {"latitude": 48.87872089183019, "number": 16121, "longitude": 2.270568097209188, "zip_code": "16121", "name": "SABLONS MAILLOT"}, {"latitude": 48.852241617707335, "number": 7101, "longitude": 2.326606019476806, "zip_code": "07101", "name": "SEVRES BABYLONE"}, {"latitude": 48.908586716952485, "number": 32006, "longitude": 2.358482457792231, "zip_code": "32006", "name": "EGLISE SAINT JUSTE (SAINT DENIS)"}, {"latitude": 48.891457726153774, "number": 18024, "longitude": 2.348636478060487, "zip_code": "18024", "name": "CLIGNANCOURT MARCADET"}, {"latitude": 48.86535224200028, "number": 20106, "longitude": 2.398946448081101, "zip_code": "20106", "name": "MAIRIE DU 20\u00c3\u02c6ME"}, {"latitude": 48.8371336894515, "number": 903, "longitude": 2.37434055460561, "zip_code": "00903", "name": "QUAI MAURIAC  / PONT DE BERCY"}, {"latitude": 48.870809428669546, "number": 16105, "longitude": 2.281149007691853, "zip_code": "16105", "name": "CREVAUX"}, {"latitude": 48.876383969379, "number": 9025, "longitude": 2.335356677933531, "zip_code": "09025", "name": "TAITBOUT CH\u00c3\u201aTEAUDUN"}, {"latitude": 48.8886487735565, "number": 22002, "longitude": 2.263904602692138, "zip_code": "22002", "name": "ARGENSON (NEUILLY)"}, {"latitude": 48.82552586188404, "number": 13024, "longitude": 2.350205084974572, "zip_code": "13024", "name": "BOBILLOT TOLBIAC"}, {"latitude": 48.877770695346776, "number": 9016, "longitude": 2.339784967507022, "zip_code": "09016", "name": "MARTYRS CHORON"}, {"latitude": 48.88126642422664, "number": 9037, "longitude": 2.328197093450571, "zip_code": "09037", "name": "CLICHY PARME"}, {"latitude": 48.877501465298494, "number": 9001, "longitude": 2.348569373385955, "zip_code": "09001", "name": "POISSONNIERE"}, {"latitude": 48.8738036229888, "number": 20002, "longitude": 2.396012223300534, "zip_code": "20002", "name": "PIXERECOURT"}, {"latitude": 48.888762777712394, "number": 23009, "longitude": 2.288136014379512, "zip_code": "23009", "name": "FRANCE (LEVALLOIS)"}, {"latitude": 48.86789, "number": 2017, "longitude": 2.34925, "zip_code": "02017", "name": "CAIRE"}, {"latitude": 48.8890400680668, "number": 19046, "longitude": 2.39528946179638, "zip_code": "19046", "name": "PORTE DE PANTIN"}, {"latitude": 48.884316180647176, "number": 19003, "longitude": 2.369829579572023, "zip_code": "19003", "name": "QUAI DE SEINE"}, {"latitude": 48.823653480254634, "number": 14023, "longitude": 2.307766825585275, "zip_code": "14023", "name": "MALAKOFF PINARD"}, {"latitude": 48.841709640161135, "number": 15020, "longitude": 2.298549294011849, "zip_code": "15020", "name": "MAIRIE DU 15EME"}, {"latitude": 48.86580427668637, "number": 11039, "longitude": 2.369337074966926, "zip_code": "11039", "name": "JULES FERRY REPUBLIQUE"}, {"latitude": 48.8743491365289, "number": 19041, "longitude": 2.38609537399646, "zip_code": "19041", "name": "PYR\u00c3\u2030N\u00c3\u2030ES"}, {"latitude": 48.88434112466304, "number": 17101, "longitude": 2.288273752637337, "zip_code": "17101", "name": "ALEXANDRE CHARPENTIER"}, {"latitude": 48.8456092496701, "number": 12018, "longitude": 2.395932627208539, "zip_code": "12018", "name": "SAINT MANDE - FAVRE"}, {"latitude": 48.84374888916389, "number": 15001, "longitude": 2.322451937473582, "zip_code": "15001", "name": "ARRIVEE"}, {"latitude": 48.884001264434495, "number": 33103, "longitude": 2.40798991938787, "zip_code": "33103", "name": "JAURES 2 (PRE SAINT GERVAIS)"}, {"latitude": 48.842524490766195, "number": 13014, "longitude": 2.364044958656523, "zip_code": "13014", "name": "GARE D'AUSTERLITZ"}, {"latitude": 48.8694370761222, "number": 20109, "longitude": 2.40539657537972, "zip_code": "20109", "name": "SURMELIN HAXO"}, {"latitude": 48.856059310074706, "number": 7103, "longitude": 2.302239128884557, "zip_code": "07103", "name": "BELGRADE"}, {"latitude": 48.844575963933345, "number": 15006, "longitude": 2.317756579232021, "zip_code": "15006", "name": "CHERCHE MIDI"}, {"latitude": 48.8845807406891, "number": 19013, "longitude": 2.38012665025372, "zip_code": "19013", "name": "LAUMIERE"}, {"latitude": 48.89048461623744, "number": 35011, "longitude": 2.406498213832891, "zip_code": "35011", "name": "D'ORVES (PANTIN)"}, {"latitude": 48.832501278703454, "number": 14032, "longitude": 2.325401166692975, "zip_code": "14032", "name": "MOUTON DUVERNET - MAIRIE DU 14EME"}, {"latitude": 48.86681, "number": 11046, "longitude": 2.36547, "zip_code": "11046", "name": "VOLTAIRE"}, {"latitude": 48.8525571174352, "number": 4007, "longitude": 2.3682407194182, "zip_code": "04007", "name": "BOURDON"}, {"latitude": 48.86455576531679, "number": 11031, "longitude": 2.373071507389205, "zip_code": "11031", "name": "PARMENTIER"}, {"latitude": 48.88259146668893, "number": 19021, "longitude": 2.381220610289335, "zip_code": "19021", "name": "MAIRIE DU 19 EME"}, {"latitude": 48.83142865005039, "number": 21014, "longitude": 2.241204653436161, "zip_code": "21014", "name": "HAMEAU FLEURI (BOULOGNE-BILLANCOURT)"}, {"latitude": 48.82742690008254, "number": 14010, "longitude": 2.325760332846014, "zip_code": "14010", "name": "JEAN MOULIN ALESIA"}, {"latitude": 48.87440566621717, "number": 10039, "longitude": 2.373807237995119, "zip_code": "10039", "name": "SAMBRE ET MEUSE"}, {"latitude": 48.83370863507971, "number": 12110, "longitude": 2.388556666222385, "zip_code": "12110", "name": "BARON LE ROY TRUFFAUT"}, {"latitude": 48.830545669445776, "number": 15048, "longitude": 2.292046396699678, "zip_code": "15048", "name": "OLIVIER DE SERRE"}, {"latitude": 48.841507637390066, "number": 5015, "longitude": 2.349983047029793, "zip_code": "05015", "name": "MOUFFETARD EPEE DE BOIS"}, {"latitude": 48.822782442043376, "number": 14017, "longitude": 2.330537540381845, "zip_code": "14017", "name": "JOURDAN TOMBE ISSOIRE"}, {"latitude": 48.86524062169503, "number": 2001, "longitude": 2.351669873689939, "zip_code": "02001", "name": "SEBASTOPOL-GRENATA"}, {"latitude": 48.857290118463105, "number": 7015, "longitude": 2.31530968318177, "zip_code": "07015", "name": "VARENNE"}, {"latitude": 48.85293316046699, "number": 16024, "longitude": 2.280439719992999, "zip_code": "16024", "name": "KENNEDY RANELAGH"}, {"latitude": 48.81591109646686, "number": 42013, "longitude": 2.368229729243504, "zip_code": "42013", "name": "BARBES (IVRY)"}, {"latitude": 48.8684101048247, "number": 11036, "longitude": 2.36784149724351, "zip_code": "11036", "name": "JULES FERRY FAUBOURG DU TEMPLE"}, {"latitude": 48.87482319032095, "number": 8108, "longitude": 2.325296117814705, "zip_code": "08108", "name": "L'ISLY"}, {"latitude": 48.84244145218906, "number": 15109, "longitude": 2.281070755215898, "zip_code": "15109", "name": "CEVENNES"}, {"latitude": 48.84186595652607, "number": 5004, "longitude": 2.341202026662388, "zip_code": "05004", "name": "SAINT JACQUES VAL DE GRACE"}, {"latitude": 48.826703941183546, "number": 14012, "longitude": 2.338636324158646, "zip_code": "14012", "name": "SIBELLE ALESIA"}, {"latitude": 48.8128905614968, "number": 42007, "longitude": 2.37065026341858, "zip_code": "42007", "name": "PIERRE ET MARIE CURIE (IVRY)"}, {"latitude": 48.873434081397704, "number": 8028, "longitude": 2.29770677798004, "zip_code": "08028", "name": "HOUSSAYE"}, {"latitude": 48.886665624668375, "number": 18110, "longitude": 2.36151933793529, "zip_code": "18110", "name": "DEPARTEMENT"}, {"latitude": 48.86743, "number": 907, "longitude": 2.36409, "zip_code": "00907", "name": "FORUM DES ASSOCIATIONS"}, {"latitude": 48.874457717241434, "number": 31708, "longitude": 2.415138092250742, "zip_code": "31708", "name": "NOISY (BAGNOLET)"}, {"latitude": 48.83586772099485, "number": 14112, "longitude": 2.33798034198275, "zip_code": "14112", "name": "FAUBOURG SAINT JACQUES CASSINI"}, {"latitude": 48.881949743161194, "number": 10107, "longitude": 2.352339506562677, "zip_code": "10107", "name": "MAGENTA PARE"}, {"latitude": 48.89086032289106, "number": 23006, "longitude": 2.295000370135378, "zip_code": "23006", "name": "GUESDE (LEVALLOIS)"}, {"latitude": 48.87119943139012, "number": 20041, "longitude": 2.37799433828966, "zip_code": "20041", "name": "BELLEVILLE"}, {"latitude": 48.863062832743175, "number": 3014, "longitude": 2.352839380718154, "zip_code": "03014", "name": "GRENIER SAINT LAZARE"}, {"latitude": 48.86453080530752, "number": 3006, "longitude": 2.361579815214986, "zip_code": "03006", "name": "MAIRIE DU 3EME"}, {"latitude": 48.82040389400885, "number": 42203, "longitude": 2.408405472156745, "zip_code": "42203", "name": "ELUARD (CHARENTON)"}, {"latitude": 48.84913990321828, "number": 6026, "longitude": 2.325175389412747, "zip_code": "06026", "name": "SAINT PLACIDE CHERCHE MIDI"}, {"latitude": 48.864582377464885, "number": 2002, "longitude": 2.346282111667021, "zip_code": "02002", "name": "MONTORGUEIL ETIENNE MARCEL"}, {"latitude": 48.875377647487014, "number": 8056, "longitude": 2.296555342476269, "zip_code": "08056", "name": "WAGRAM"}, {"latitude": 48.846986752813294, "number": 5032, "longitude": 2.346499653762975, "zip_code": "05032", "name": "PANTHEON CARMES"}, {"latitude": 48.8816744459654, "number": 22010, "longitude": 2.27117749892451, "zip_code": "22010", "name": "DE GAULLE 4 (NEUILLY)"}, {"latitude": 48.85940308194, "number": 16111, "longitude": 2.2765220890277, "zip_code": "16111", "name": "HELIE"}, {"latitude": 48.81940130486362, "number": 14014, "longitude": 2.34337661053354, "zip_code": "14014", "name": "STADE CHARLETY"}, {"latitude": 48.834705859741675, "number": 12035, "longitude": 2.397111552649508, "zip_code": "12035", "name": "MADAGASCAR"}, {"latitude": 48.906383398095834, "number": 33005, "longitude": 2.3895475019254, "zip_code": "33005", "name": "REPUBLIQUE 2 (AUBERVILLIERS)"}, {"latitude": 48.8504400134045, "number": 12005, "longitude": 2.37890136621104, "zip_code": "12005", "name": "CROZATIER"}, {"latitude": 48.849921101862066, "number": 15106, "longitude": 2.294660575884377, "zip_code": "15106", "name": "GRENELLE VIOLET (PROP3)"}, {"latitude": 48.88356474485461, "number": 18043, "longitude": 2.333418629410461, "zip_code": "18043", "name": "BLANCHE"}, {"latitude": 48.88368821751221, "number": 17015, "longitude": 2.313284405397194, "zip_code": "17015", "name": "PLACE DE LEVIS"}, {"latitude": 48.832272458639544, "number": 13043, "longitude": 2.367415866750153, "zip_code": "13043", "name": "DUNOIS CLISSON"}, {"latitude": 48.864910448589, "number": 16007, "longitude": 2.292519101004145, "zip_code": "16007", "name": "LONGCHAMP"}, {"latitude": 48.83264101037033, "number": 13051, "longitude": 2.37910490091443, "zip_code": "13051", "name": "QUAI FRANCOIS MAURIAC TOLBIAC"}, {"latitude": 48.8581690434843, "number": 7024, "longitude": 2.300528330043888, "zip_code": "07024", "name": "AVENUE RAPP"}, {"latitude": 48.890380265413896, "number": 23007, "longitude": 2.292160482166423, "zip_code": "23007", "name": "WILSON (LEVALLOIS)"}, {"latitude": 48.84379047732037, "number": 13104, "longitude": 2.365585665575604, "zip_code": "13104", "name": "GARE D'AUSTERLITZ"}, {"latitude": 48.81251090819872, "number": 21203, "longitude": 2.325680623044519, "zip_code": "21203", "name": "BRIAND (MONTROUGE)"}, {"latitude": 48.82211534378805, "number": 42011, "longitude": 2.392850382414293, "zip_code": "42011", "name": "BOYER (IVRY)"}, {"latitude": 48.85165117936709, "number": 5009, "longitude": 2.347463334519655, "zip_code": "05009", "name": "SQUARE VIVIANI"}, {"latitude": 48.86263180415945, "number": 1006, "longitude": 2.349732144830979, "zip_code": "01006", "name": "GRANDE TRUANDERIE"}, {"latitude": 48.813080911445375, "number": 21208, "longitude": 2.319787936689348, "zip_code": "21208", "name": "CARVES (MONTROUGE)"}, {"latitude": 48.8640767117056, "number": 16013, "longitude": 2.276881687006711, "zip_code": "16013", "name": "AVENUE HENRI MARTIN"}, {"latitude": 48.89319467536488, "number": 23008, "longitude": 2.288914160056623, "zip_code": "23008", "name": "REPUBLIQUE (LEVALLOIS)"}, {"latitude": 48.891213890844654, "number": 18023, "longitude": 2.351288666219873, "zip_code": "18023", "name": "POISSONNIERS ORDENER"}, {"latitude": 48.891083040295555, "number": 18047, "longitude": 2.326735694839291, "zip_code": "18047", "name": "ST OUEN LAMARCK"}, {"latitude": 48.820507, "number": 13028, "longitude": 2.351342, "zip_code": "13028", "name": "GOUTHIERE"}, {"latitude": 48.866137224583404, "number": 3005, "longitude": 2.359661143626467, "zip_code": "03005", "name": "TURBIGO SAINTE ELISABETH"}, {"latitude": 48.8957969797804, "number": 18031, "longitude": 2.345585584134864, "zip_code": "18031", "name": "ALBERT KAHN"}, {"latitude": 48.837679003308445, "number": 15104, "longitude": 2.275730609312381, "zip_code": "15104", "name": "H\u00c3\u201dPITAL GEORGES POMPIDOU (PROP 2)"}, {"latitude": 48.89270999207067, "number": 19007, "longitude": 2.379199748024915, "zip_code": "19007", "name": "OURCQ-FLANDRES"}, {"latitude": 48.840762277598394, "number": 12023, "longitude": 2.41052344083499, "zip_code": "12023", "name": "SAHEL"}, {"latitude": 48.86518641284941, "number": 20028, "longitude": 2.394468581137673, "zip_code": "20028", "name": "GAMBETTA MARTIN NADAUD"}, {"latitude": 48.8688123638694, "number": 31009, "longitude": 2.43297479522392, "zip_code": "31009", "name": "DE GAULLE (MONTREUIL)"}, {"latitude": 48.83486717959749, "number": 13002, "longitude": 2.344575141243577, "zip_code": "13002", "name": "ARAGO"}, {"latitude": 48.83062407509372, "number": 13004, "longitude": 2.345429456645987, "zip_code": "13004", "name": "GLACIERE"}, {"latitude": 48.88093535677379, "number": 8011, "longitude": 2.324516635146477, "zip_code": "08011", "name": "DUBLIN"}, {"latitude": 48.86803439043193, "number": 20103, "longitude": 2.411030612453627, "zip_code": "20103", "name": "LE VAU BERTEAUX"}, {"latitude": 48.82214312580457, "number": 42205, "longitude": 2.412602786467704, "zip_code": "42205", "name": "PARIS 1 (CHARENTON)"}, {"latitude": 48.866698008473534, "number": 1019, "longitude": 2.328288185716643, "zip_code": "01019", "name": "SAINT HONORE VENDOME"}, {"latitude": 48.84089981382828, "number": 12022, "longitude": 2.404380102963422, "zip_code": "12022", "name": "BIZOT"}, {"latitude": 48.88466206560529, "number": 19020, "longitude": 2.390209687445294, "zip_code": "19020", "name": "MANIN HAUTPOUL"}, {"latitude": 48.83425462795304, "number": 14030, "longitude": 2.317609339386963, "zip_code": "14030", "name": "LOSSERAND - PERNETY"}, {"latitude": 48.86269, "number": 7026, "longitude": 2.31138, "zip_code": "07026", "name": "PLACE DE FINLANDE"}, {"latitude": 48.8217026998931, "number": 21704, "longitude": 2.285395624828388, "zip_code": "21704", "name": "REPUBLIQUE (VANVES)"}, {"latitude": 48.822175804937544, "number": 44102, "longitude": 2.421504476062366, "zip_code": "44102", "name": "VERDUN (SAINT MAURICE)"}, {"latitude": 48.8836531972476, "number": 9003, "longitude": 2.349040855034395, "zip_code": "09003", "name": "PLACE BARB\u00c3\u02c6S"}, {"latitude": 48.811101837772526, "number": 21209, "longitude": 2.314629747784999, "zip_code": "21209", "name": "GEORGES MESSIER (MONTROUGE)"}, {"latitude": 48.882951625354735, "number": 22008, "longitude": 2.265135008741844, "zip_code": "22008", "name": "DE GAULLE (NEUILLY)"}, {"latitude": 48.822736012097714, "number": 42202, "longitude": 2.405659203207511, "zip_code": "42202", "name": "RONSARD (CHARENTON)"}, {"latitude": 48.817312300431965, "number": 13033, "longitude": 2.360218480943566, "zip_code": "13033", "name": "PORTE D'ITALIE"}, {"latitude": 48.88657099335245, "number": 17032, "longitude": 2.288612344984025, "zip_code": "17032", "name": "ESPACE CHAMPERRET"}, {"latitude": 48.8518182000139, "number": 11016, "longitude": 2.393255376309212, "zip_code": "11016", "name": "PHILIPPE AUGUSTE"}, {"latitude": 48.852705647705136, "number": 5033, "longitude": 2.344137763245671, "zip_code": "05033", "name": "SAINT SEVERIN"}, {"latitude": 48.905362251416825, "number": 34007, "longitude": 2.33738964850196, "zip_code": "34007", "name": "ROSIERS (SAINT OUEN)"}, {"latitude": 48.87315262385819, "number": 19102, "longitude": 2.379855610627962, "zip_code": "19102", "name": "BELLEVILLE RAMPAL"}, {"latitude": 48.84986918764119, "number": 16116, "longitude": 2.268257387525699, "zip_code": "16116", "name": "GEORGES SAND"}, {"latitude": 48.8104231700653, "number": 41103, "longitude": 2.326969764620641, "zip_code": "41103", "name": "BRIAND (ARCUEIL)"}, {"latitude": 48.84698906998311, "number": 12020, "longitude": 2.410145496563922, "zip_code": "12020", "name": "COURS DE VINCENNES - BD SOULT"}, {"latitude": 48.81492646724632, "number": 42002, "longitude": 2.392001635824925, "zip_code": "42002", "name": "GARE (IVRY)"}, {"latitude": 48.82371847766811, "number": 21309, "longitude": 2.272254454061792, "zip_code": "21309", "name": "CRESSON 2 (ISSY LES MOULINEAUX)"}, {"latitude": 48.85213620522547, "number": 904, "longitude": 2.301961227213259, "zip_code": "00904", "name": "PLACE JOFFRE / ECOLE MILITAIRE"}, {"latitude": 48.8910789762746, "number": 35010, "longitude": 2.402775519686335, "zip_code": "35010", "name": "GERVAIS (PANTIN)"}, {"latitude": 48.85398414441304, "number": 4001, "longitude": 2.349380045291025, "zip_code": "04001", "name": "NOTRE DAME"}, {"latitude": 48.855484883720074, "number": 16026, "longitude": 2.270408657395703, "zip_code": "16026", "name": "RANELAGH"}, {"latitude": 48.849744956976856, "number": 43010, "longitude": 2.451960306308826, "zip_code": "43010", "name": "JARRY (VINCENNES)"}, {"latitude": 48.843277330035214, "number": 15012, "longitude": 2.30230766886348, "zip_code": "15012", "name": "MADEMOISELLE"}, {"latitude": 48.907226012664125, "number": 35002, "longitude": 2.396129200445667, "zip_code": "35002", "name": "JAURES 2 (PANTIN)"}, {"latitude": 48.87752002849063, "number": 10038, "longitude": 2.369791245076398, "zip_code": "10038", "name": "COLONEL FABIEN"}, {"latitude": 48.829570404732145, "number": 14025, "longitude": 2.318353021413872, "zip_code": "14025", "name": "JACQUIER"}, {"latitude": 48.87428447542072, "number": 9031, "longitude": 2.332976511564311, "zip_code": "09031", "name": "PROVENCE"}, {"latitude": 48.859896314441485, "number": 1004, "longitude": 2.346756667548724, "zip_code": "01004", "name": "MARGUERITE DE NAVARRE"}, {"latitude": 48.8685264710698, "number": 20034, "longitude": 2.389795409535456, "zip_code": "20034", "name": "SORBIER - M\u00c3\u2030NILMONTANT"}, {"latitude": 48.861419072223185, "number": 4021, "longitude": 2.35258144286207, "zip_code": "04021", "name": "BEAUBOURG RAMBUTEAU"}, {"latitude": 48.864295696165875, "number": 20024, "longitude": 2.398228667282044, "zip_code": "20024", "name": "GAMBETTA - P\u00c3\u02c6RE LACHAISE"}, {"latitude": 48.81084586456464, "number": 42010, "longitude": 2.383950863420485, "zip_code": "42010", "name": "ROBESPIERRE (IVRY)"}, {"latitude": 48.81386296358667, "number": 21205, "longitude": 2.306943605660779, "zip_code": "21205", "name": "JAURES 2 (MONTROUGE)"}, {"latitude": 48.89740678787196, "number": 18105, "longitude": 2.352526659355508, "zip_code": "18105", "name": "BELIARD POISSONNIERS"}, {"latitude": 48.84254096604404, "number": 6018, "longitude": 2.335067885565505, "zip_code": "06018", "name": "MICHELET ASSAS"}, {"latitude": 48.85402328452585, "number": 20009, "longitude": 2.412058016605679, "zip_code": "20009", "name": "DOCTEUR DEJERINE"}, {"latitude": 48.857477789996096, "number": 31007, "longitude": 2.432569781846518, "zip_code": "31007", "name": "PARIS 1 (MONTREUIL)"}, {"latitude": 48.835524753591024, "number": 15122, "longitude": 2.302621940941139, "zip_code": "15122", "name": "PLACE CHARLES VALLIN"}, {"latitude": 48.85738212799326, "number": 16020, "longitude": 2.264277072081002, "zip_code": "16020", "name": "PORTE DE PASSY"}, {"latitude": 48.82330323408161, "number": 21706, "longitude": 2.296506343553357, "zip_code": "21706", "name": "BLEUZEN (VANVES)"}, {"latitude": 48.851581340028176, "number": 5001, "longitude": 2.343704536722773, "zip_code": "05001", "name": "SAINT GERMAIN HARPE"}, {"latitude": 48.86741186571367, "number": 16008, "longitude": 2.290781380114821, "zip_code": "16008", "name": "GALILEE KLEBER"}, {"latitude": 48.89104123261663, "number": 18020, "longitude": 2.340014585442034, "zip_code": "18020", "name": "RUISSEAU"},